id,label,left_name,left_host_id,left_host_name,left_neighbourhood_group,left_neighbourhood,left_latitude,left_longitude,left_room_type,left_price,left_minimum_nights,left_number_of_reviews,left_last_review,left_reviews_per_month,left_calculated_host_listings_count,left_availability_365,right_name,right_neighbourhood,right_host_id,right_host_name,right_neighbourhood_group,right_latitude,right_longitude,right_room_type,right_price,right_minimum_nights,right_number_of_reviews,right_last_review,right_reviews_per_month,right_calculated_host_listings_count,right_availability_365
23644901,0,"Modern, lux BDR breakfast airport pickup included!",51088192,Sama,Brooklyn,Bedford-Stuyvesant,40.69028,-73.94163,Private room,100,3,0,,,1,364,Fantastic loft space in Greenpoint,Greenpoint,42905152,Charlotte,Brooklyn,40.72268,-73.94163,Entire home/apt,160,10,0,,,1,42
19603624,0,Beautiful Greenwich Village Home in NYC,71811779,Rebecca,Manhattan,West Village,40.73129,-74.00298,Entire home/apt,250,1,0,,,1,0,2 Floor Minimalist Loft located in Lower Chelsea!,Chelsea,4374467,Rudy,Manhattan,40.74505,-74.00298,Entire home/apt,225,2,0,,,1,9
15884886,0,Brooklyn Stay,58368740,Bianca,Brooklyn,Bedford-Stuyvesant,40.68537,-73.95043,Private room,70,1,1,2017-01-02,0.03,1,0,Calming room in a thrilling city,Crown Heights,43011952,Jennifer,Brooklyn,40.6736,-73.95043,Private room,75,1,0,,,1,0
30933535,0,Chic 2 bedroom just a train ride away from NYC,230517521,Vincent,Queens,Ridgewood,40.69913,-73.90831,Entire home/apt,200,2,1,2019-06-30,1.0,1,0,Spacious Private Room in Brooklyn,Bushwick,2238052,Chris,Brooklyn,40.69288,-73.90831,Private room,69,2,54,2019-06-09,1.26,1,0
8839938,0,Beautiful 1BR in Chelsea,46293809,Courtney,Manhattan,Chelsea,40.74336,-73.99706,Entire home/apt,250,1,0,,,1,0,Cute Room Perfect Downtown Location,Little Italy,29040298,Paulien,Manhattan,40.72043,-73.99706,Private room,64,3,0,,,1,0
15545469,0,Modern Bedroom with Best View in Brooklyn,14482375,Lara & David,Brooklyn,Greenpoint,40.72214,-73.94345,Private room,199,3,20,2019-06-27,0.66,3,0,Great Room in NY close Upper East Side,East Harlem,33411808,Maxime,Manhattan,40.78559,-73.94345,Private room,40,3,0,,,1,0
35461013,1,Artsy Private BR in Fort Greene Cumberland,230192510,Zach,Brooklyn,Fort Greene,40.69747,-73.97506,Private room,48,30,0,,,25,310,Artsy Private BR in Fort Greene Cumberland,Fort Greene,230192510,Zach,Brooklyn,40.69634,-73.97393,Private room,48,30,0,,,25,342
10086029,0,West Village Duplex with Backyard!,2072706,Umang,Manhattan,West Village,40.73191,-74.00493,Entire home/apt,800,3,0,,,1,0,Chelsea Apt w/ Private Rooftop Deck,Chelsea,24625891,T,Manhattan,40.74815,-74.00493,Entire home/apt,125,3,0,,,1,0
9822983,0,31 Dec - 1 Jan lovely Prospect room,4119786,Shimrit,Brooklyn,Prospect Heights,40.6733,-73.9647,Private room,40,1,1,2015-12-23,0.02,2,0,Prime Williamsburg 2 Balcony & Roof,Williamsburg,740029,Emily,Brooklyn,40.70997,-73.9647,Entire home/apt,100,1,1,2016-03-13,0.02,1,0
9430502,0,Stay in the coolest neighborhood,3100823,Kyle,Brooklyn,Bushwick,40.70383,-73.92853,Private room,40,1,0,,,1,0,Enjoy privacy & comfort in Washington Heights 1BR,Washington Heights,17174170,Angela,Manhattan,40.85197,-73.92853,Entire home/apt,74,1,4,2019-03-24,0.95,1,0
22409073,0,The Baltic - A One Bedroom Apartment,162781227,Gareth,Brooklyn,Gowanus,40.68192,-73.98176,Entire home/apt,280,2,7,2018-12-25,0.38,1,0,"Central 1 bdrm, W/D, roof deck",Kips Bay,26958002,Justin,Manhattan,40.74041,-73.98176,Entire home/apt,225,2,2,2015-06-25,0.04,1,0
15956162,0,Cozy room with balcony in 15mins Manhattan,103488282,Kaka,Queens,Sunnyside,40.74674,-73.92194,Private room,75,1,122,2019-06-24,3.78,5,0,Cute sunny room in big Bushwick apartment,Bushwick,143460,Megan,Brooklyn,40.69819,-73.92194,Private room,45,1,3,2018-07-29,0.21,2,0
22214268,0,Cozy 1BR+SofaBed in Quiet Part of Popular LES,93039729,Sunny,Manhattan,Lower East Side,40.71833,-73.98562,Private room,95,1,0,,,2,0,Romantic Rooftop Studio with 360 Brooklyn views!,Gowanus,3479852,Benjamin,Brooklyn,40.68275,-73.98562,Entire home/apt,150,1,179,2019-06-27,5.69,1,0
9987456,0,Great location next to Times Square,45832664,Monica,Manhattan,Hell's Kitchen,40.76059,-73.99475,Private room,60,1,2,2016-02-08,0.05,1,0,Flatiron Oasis,Chelsea,71321195,Sonia,Manhattan,40.73737,-73.99475,Entire home/apt,225,1,0,,,1,0
35770104,0,Townhouse in Bed Stuy with beautiful garden,18142449,Mara,Brooklyn,Bedford-Stuyvesant,40.68743,-73.95257,Entire home/apt,350,5,0,,,1,22,1 Bedroom in Crown Heights,Crown Heights,51662642,Alex,Brooklyn,40.67023,-73.95257,Entire home/apt,90,1,0,,,1,0
35461373,1,Artsy Private BR in Fort Greene Cumberland,230192510,Zach,Brooklyn,Fort Greene,40.69617,-73.97532,Private room,48,30,0,,,25,341,Artsy Private BR in Fort Greene Cumberland,Fort Greene,230192510,Zach,Brooklyn,40.6971,-73.97523,Private room,48,30,0,,,25,305
9292072,0,Spacious 1 Bedroom Apartment,23429756,Maggie,Manhattan,Upper East Side,40.77638,-73.9476,Entire home/apt,215,1,0,,,1,0,Sunny Room close to Express Train,Bedford-Stuyvesant,142695,Lynn,Brooklyn,40.6813,-73.9476,Private room,65,1,0,,,1,0
20663644,0,Elegant Brooklyn Studio in Luxury Amenity Building,77944774,Jacqueline,Brooklyn,Windsor Terrace,40.64931,-73.9733,Entire home/apt,85,3,12,2019-05-20,0.53,1,5,Stunning Brownstone Apt in Historic Fort Greene,Fort Greene,12166612,Dana,Brooklyn,40.68884,-73.9733,Entire home/apt,310,3,1,2019-07-05,1.0,1,5
10675218,0,New York style loft space,7556789,Samuel,Manhattan,East Harlem,40.80523,-73.93929,Private room,60,1,0,,,1,0,Sunny Bedroom in Harlem,Harlem,74712074,Noel,Manhattan,40.81834,-73.93929,Private room,70,1,4,2016-11-21,0.11,1,0
16328372,0,Room In Bed-Stuy Apartment,68547639,Darren,Brooklyn,Bedford-Stuyvesant,40.68901,-73.95371,Private room,100,1,0,,,1,0,UpperEastSide Sun Drenched 2 Bedrooms Close to All,Upper East Side,8687162,Pinar,Manhattan,40.77847,-73.95371,Entire home/apt,135,15,0,,,1,0
21127460,0,"HUGE, well-lit apartment, great Brooklyn location",12317482,Anna,Brooklyn,Crown Heights,40.66505,-73.95998,Entire home/apt,150,2,1,2017-09-30,0.05,1,0,Charming and cozy one-bedroom on Upper West Side,Morningside Heights,94395484,Rosemarie,Manhattan,40.81511,-73.95998,Entire home/apt,140,2,6,2019-02-24,0.66,1,0
29528574,0,Cosy room in spacious Fort Greene apartment,9601006,Izzy,Brooklyn,Fort Greene,40.69519,-73.97202,Private room,60,1,23,2019-04-23,2.7,1,0,Luxury High Rise Apartment,Murray Hill,2263462,Anna Meng,Manhattan,40.74467,-73.97202,Private room,100,1,1,2015-10-03,0.02,1,0
7206401,0,Wonderful Inwood,17383399,Catlin,Manhattan,Inwood,40.86755,-73.92336,Entire home/apt,175,1,0,,,1,0,Cute 1 Bedroom in 2BR Apartment,Long Island City,9845403,Lenur,Queens,40.75358,-73.92336,Private room,70,1,0,,,1,0
35842254,0,Santa’s Party House,269606659,Steve,Brooklyn,Bushwick,40.69874,-73.92969,Entire home/apt,150,2,0,,,1,365,Spacious Apartment in Astoria,Long Island City,243321,Richard,Queens,40.76398,-73.92969,Entire home/apt,150,3,0,,,1,0
13496448,0,Sunny apartment in Lower East Side (LES),21604714,Roxy,Manhattan,Lower East Side,40.71934,-73.98172,Private room,75,2,3,2018-05-20,0.08,1,0,Top Floor Brownstone - Park Slope,South Slope,3894475,Kyle,Brooklyn,40.66671,-73.98172,Private room,85,2,5,2018-07-24,0.1,3,0
21394596,0,Room avail: Newly-renovated Washington Heights APT,29883522,Alison,Manhattan,Washington Heights,40.84412,-73.93968,Private room,50,3,1,2017-11-06,0.05,1,0,Spacious living space in Williamsburg/Bushwick,Williamsburg,14291958,Yiming (Steven),Brooklyn,40.70644,-73.93968,Private room,60,3,2,2016-10-10,0.06,1,0
34094976,0,Sweet Home near Columbia,245014802,佳,Manhattan,Morningside Heights,40.80495,-73.96439,Private room,50,60,0,,,1,72,Spacious room in Midtown East Manhattan,Midtown,956383,Andrew,Manhattan,40.75896,-73.96439,Private room,105,7,0,,,1,0
7724136,0,Large Lower East Side 1 BDR,40585961,Miguel,Manhattan,Lower East Side,40.72092,-73.98849,Private room,85,1,0,,,1,0,1 bedroom in nyc,Hell's Kitchen,4360949,Denetrias,Manhattan,40.76366,-73.98849,Entire home/apt,260,1,0,,,1,0
21041077,0,Huge Bedroom Next to Lines Q & 6 UPPER EAST SIDE,114011720,Alexandre,Manhattan,Upper East Side,40.7844,-73.9485,Private room,70,3,2,2017-11-04,0.09,1,0,Quick access to the city for cheap,Harlem,49139686,David,Manhattan,40.82442,-73.9485,Private room,55,3,4,2018-01-01,0.21,1,0
26291721,0,Gem in NoMad - entire apartment,197675041,Alexandra,Manhattan,Midtown,40.7424,-73.9837,Entire home/apt,220,3,0,,,1,28,charming 2bdrm apt in East Village,East Village,1151987,Juvie,Manhattan,40.72264,-73.9837,Entire home/apt,160,4,0,,,1,0
16081163,0,Bright Brooklyn Bedroom in Crown Heights,17848497,Steve,Brooklyn,Crown Heights,40.67532,-73.94138,Private room,35,3,2,2017-04-23,0.07,1,0,Beautiful stylish Brooklyn apartmen,Bedford-Stuyvesant,66286,Liat,Brooklyn,40.68538,-73.94138,Entire home/apt,120,3,3,2016-08-09,0.08,2,0
8208317,0,Apartment share with stunning sunset views,17686601,Lauren,Manhattan,Theater District,40.76365,-73.98484,Private room,155,1,0,,,1,0,True 1 Bedroom Apt in Manhattan's Lower East Side,Lower East Side,7147901,Sabrina,Manhattan,40.71526,-73.98484,Entire home/apt,118,1,6,2016-09-24,0.16,1,0
18746696,0,"One Bedroom-One Bathroom in Greenpoint, Brooklyn.",1485117,Matt,Brooklyn,Greenpoint,40.72186,-73.94588,Entire home/apt,125,2,8,2017-12-30,0.31,1,0,Cozy Bedroom in Renovated Harlem Apartment,Harlem,4783045,Delesia,Manhattan,40.81435,-73.94588,Private room,52,2,1,2016-07-20,0.03,1,0
14453189,0,1BR Apartment,81673810,Max,Manhattan,Chinatown,40.71539,-73.99092,Entire home/apt,170,4,0,,,1,0,East Village/Noho Garden Apartment,East Village,6866192,Omar & Ashley,Manhattan,40.7271,-73.99092,Entire home/apt,195,2,0,,,1,0
16050505,0,1 Bedroom Apartment with Balcony in Brooklyn,104500369,Eric,Brooklyn,Bedford-Stuyvesant,40.69519,-73.95107,Entire home/apt,75,1,3,2016-11-29,0.09,1,0,Private Room in Brooklyn,Williamsburg,6468894,Cherng-Mao,Brooklyn,40.71564,-73.95107,Private room,75,1,10,2016-04-19,0.17,1,0
25227326,0,Adorable Top Floor Williamsburg Apt (1 Bedroom),75452286,Sarah,Brooklyn,Williamsburg,40.71754,-73.95906,Entire home/apt,125,2,15,2019-03-24,1.14,1,0,Bright private room with high ceilings near subway,Bedford-Stuyvesant,35328956,Mansimran,Brooklyn,40.6905,-73.95906,Private room,57,2,2,2019-03-01,0.32,1,0
4699963,0,"Cozy 1BD in PLG, Brooklyn!",24295835,Aaron,Brooklyn,Prospect-Lefferts Gardens,40.66074,-73.96035,Entire home/apt,100,3,15,2017-05-24,0.27,1,0,Spacious 2 bedroom in beautiful Clinton Hill,Clinton Hill,1931990,Yarden,Brooklyn,40.68859,-73.96035,Entire home/apt,93,3,2,2018-05-11,0.13,1,0
25110301,0,"Sunny home in Sunnyside, NY",41783072,Daniela & Steven,Queens,Sunnyside,40.7446,-73.92342,Private room,85,1,0,,,1,0,Inwood apartment closed to have fun in manhattan,Inwood,130633561,Jose,Manhattan,40.86815,-73.92342,Private room,125,1,0,,,1,89
7155442,0,Huge Room in Prime Williamsburg,1279181,Matthew,Brooklyn,Williamsburg,40.7155,-73.95603,Private room,150,1,0,,,1,0,Nice thing,Bedford-Stuyvesant,208559533,Mechel,Brooklyn,40.69528,-73.95603,Shared room,115,1,0,,,1,89
22516361,0,Cozy & artsy apt in East Village - 2 bedrooms,26583247,Frannie,Manhattan,East Village,40.7316,-73.98507,Entire home/apt,132,7,0,,,1,0,Beautiful 2-bed apartment in leafy Boerum Hill,Boerum Hill,60350045,Katie,Brooklyn,40.68597,-73.98507,Entire home/apt,150,7,2,2018-09-09,0.14,2,0
7644505,0,Contemporary Brooklyn Town House,29999716,Scott,Brooklyn,South Slope,40.66393,-73.98728,Entire home/apt,300,7,0,,,1,0,Luxury private room near Times Sqr,Hell's Kitchen,27163319,Stefano,Manhattan,40.76444,-73.98728,Private room,120,5,0,,,1,8
4244476,0,Sunny and Funky Greenpoint Room,782008,Lori,Brooklyn,Greenpoint,40.73093,-73.95332,Private room,75,1,1,2015-07-10,0.02,1,0,"Clean, comfortable and convenient UES Studio",Upper East Side,28551360,Kate,Manhattan,40.78226,-73.95332,Entire home/apt,120,1,11,2016-11-13,0.3,1,0
27250504,0,Exquisite Room--Just 15 minutes from JFK,205243076,Diana,Queens,Cambria Heights,40.69159,-73.73658,Private room,65,2,27,2019-06-30,2.34,2,79,Joyous private Room,Bushwick,212071658,Brian,Brooklyn,,-73.90399,Private room,65,2,30,2019-06-13,2.96,5,359
1928570,0,"Studio Apt. in Williamsburg, Brooklyn, NY",4393792,Jose C.,Brooklyn,Williamsburg,40.71532,-73.94581,Entire home/apt,120,3,5,2018-11-04,0.26,1,0,Cozy & Charming Chinatown/LES Spot!,Chinatown,9314442,Adam + Yulu,Manhattan,,-73.99343,Entire home/apt,120,3,2,2016-10-04,0.05,1,0
13208373,0,New construction in Gramercy with rooftop and gym!,74031395,Matt,Manhattan,Gramercy,40.73637,-73.98051,Entire home/apt,350,5,0,,,1,0,Carol,East Village,9709464,Jessica,Manhattan,40.72898,-73.98051,Private room,1700,1,0,,,1,0
21666331,0,Little Gem in Brooklyn,157701601,Karen,Brooklyn,Williamsburg,40.70737,-73.93961,Entire home/apt,125,4,2,2018-08-09,0.11,1,0,Convenient and Comfy - minutes from Manhattan!,Long Island City,3726127,Megan And Martin,Queens,40.75044,-73.93961,Private room,150,4,0,,,1,0
35004123,0,Quiet LES private room with private half bathroom,262114182,Charlton And Marcia,Manhattan,Lower East Side,40.71549,-73.97951,Private room,125,2,0,,,1,296,Huge Unique Two Story E.Vill Oasis,East Village,46665505,Cj,Manhattan,40.72179,-73.97951,Entire home/apt,500,2,0,,,1,0
25465160,0,Shared Apartment By Times Square Hell’s Kitchen,187975743,R.Henry,Manhattan,Hell's Kitchen,40.76364,-73.98859,Shared room,65,1,63,2019-07-01,4.68,8,196,2000sq $2 million 3 story townhouse,Gowanus,28023382,Edwin,Brooklyn,40.684,-73.98859,Entire home/apt,99,1,183,2019-06-30,3.74,1,196
36201685,0,"Cozy, serene sanctuary for one",26325723,Suzana,Manhattan,Upper East Side,40.77365,-73.94961,Private room,80,1,0,,,1,56,Large 1 Bedroom in Brooklyn,Crown Heights,25894037,Margaret,Brooklyn,40.67477,-73.94961,Entire home/apt,125,1,0,,,1,0
35875685,0,"Harlem Hidden Gem,Clean, Affordable and Convenient",269838822,Asya,Manhattan,Harlem,40.80549,-73.95136,Private room,80,2,0,,,1,352,1 Bedroom in Williamsburg 3 BD/1BA Apartment,Williamsburg,26942041,Clara,Brooklyn,40.70744,-73.95136,Private room,50,7,0,,,1,0
26447954,0,Beautiful Designer DUMBO Loft,244444,Michael,Brooklyn,Vinegar Hill,40.7023,-73.98394,Entire home/apt,159,14,0,,,1,0,LOWER EAST SIDE GEM,Lower East Side,3754629,Gina,Manhattan,40.71873,-73.98394,Entire home/apt,150,1,0,,,1,0
19313134,1,"Cozy 1 bedroom apt, Quiet, Near metro, East side",3792860,Elena,Manhattan,Upper East Side,40.76873,-73.95328,Entire home/apt,180,3,0,,,2,0,"Cozy 1 bedroom apt, Quiet, Near metro, East side",Upper East Side,3792860,Elena,Manhattan,40.77052,-73.95485,Entire home/apt,150,1,0,,,2,0
34817616,0,5 min walk to Times Square!  Sleeps 5. Very clean.,251535441,Nick,Manhattan,Hell's Kitchen,40.76047,-73.99202,Entire home/apt,199,7,6,2019-07-01,3.46,1,102,Brklyn Hts Luxury - Garden Calm & Downtown Verve,Brooklyn Heights,35648363,Luke,Brooklyn,40.69183,-73.99202,Entire home/apt,250,2,119,2019-07-01,3.62,1,230
10251768,0,spacious pretty east harlem apt.,19927798,Siobhan,Manhattan,East Harlem,40.79366,-73.94059,Entire home/apt,135,1,4,2016-10-11,0.11,1,0,Beautiful room upper manhttn.,Washington Heights,34475475,Richard,Manhattan,40.85131,-73.94059,Private room,75,1,0,,,1,0
4446862,0,Charming Room in Prospect Heights!,23077718,,Brooklyn,Crown Heights,40.67512,-73.96146,Private room,50,1,0,,,1,0,Room in spacious house in Brooklyn!,Midwood,271073,Besanya,Brooklyn,40.62391,-73.96146,Private room,30,1,0,,,1,0
8061409,0,Private Bedroom in Quiet Brooklyn Neighborhood,1100659,Joe,Brooklyn,Bushwick,40.7052,-73.91549,Private room,49,1,107,2019-06-09,3.04,1,340,"1BR in Newly Renovated Apartment - Rm C, Bushwick!",Williamsburg,36012265,Ada,Brooklyn,,-73.93017,Private room,49,1,6,2019-06-09,0.53,7,343
11646497,0,Spacious Room in Stuyvesant Heights,21480710,Theodore,Brooklyn,Bedford-Stuyvesant,40.68486,-73.932,Private room,89,1,0,,,2,0,New Modern Industrial Studio Apt,Bushwick,53209258,Michelle,Brooklyn,40.69724,-73.932,Private room,105,1,0,,,1,0
16259169,0,Private semi-furnished room in  6 bedroom duplex.,106321136,Devshri,Brooklyn,Bedford-Stuyvesant,40.69118,-73.9554,Private room,35,15,0,,,1,0,"A fine, modern, spacious apartment",Harlem,32199364,Guillermo,Manhattan,40.80686,-73.9554,Entire home/apt,199,1,0,,,1,0
30745429,0,Alphabet City Long term Stay,31917161,Cameron,Manhattan,East Village,40.72583,-73.97528,Private room,70,30,0,,,1,0,Giant Landmark Apartment in the Sky,Park Slope,3710888,Lisa,Brooklyn,40.67546,-73.97528,Private room,350,365,0,,,1,364
9916371,0,Beautiful stylish Brooklyn apartmen,66286,Liat,Brooklyn,Bedford-Stuyvesant,40.68538,-73.94138,Entire home/apt,120,3,3,2016-08-09,0.08,2,0,Bright Brooklyn Bedroom in Crown Heights,Crown Heights,17848497,Steve,Brooklyn,40.67532,-73.94138,Private room,35,3,2,2017-04-23,0.07,1,0
32018402,0,Spacious warm clean private room in the Brooklyn,34556469,Zhansaya,Brooklyn,Gravesend,40.60653,-73.97725,Private room,50,1,0,,,2,0,Bedroom on Riverside Park,Upper West Side,7323687,Russell,Manhattan,40.79304,-73.97725,Private room,125,1,0,,,1,0
7091125,0,"Flatiron Studio Loft, Elevator Bldg",7719262,Ryan,Manhattan,Flatiron District,40.74138,-73.98814,Entire home/apt,299,28,160,2019-06-22,3.39,1,315,Cozy Private Bedroom In The Heart Of Midtown,Hell's Kitchen,87979621,Adam,Manhattan,40.76907,-73.98814,Private room,99,2,52,2019-06-22,4.08,1,192
9921366,0,Luxury Apartment w/ Rooftop Patio,51002691,Paul,Brooklyn,Bedford-Stuyvesant,40.6809,-73.94537,Entire home/apt,65,1,0,,,1,0,Overlooking NYC skyline in Greenpoint,Greenpoint,41152325,I-Nu,Brooklyn,40.72373,-73.94537,Entire home/apt,120,5,0,,,1,0
253803,1,Loft Suite @ The Box House Hotel,417504,The Box House Hotel,Brooklyn,Greenpoint,40.73708,-73.95271,Entire home/apt,199,3,23,2019-06-22,0.26,28,60,Loft Suite @ The Box House Hotel,Greenpoint,417504,The Box House Hotel,Brooklyn,40.73857,-73.95435,Entire home/apt,199,3,23,2019-04-23,0.26,28,81
8903855,0,Queens Condo w/ Manhattan View,46573375,Loren,Queens,Long Island City,40.75216,-73.94099,Shared room,150,3,0,,,1,0,Pristine Bedroom in Historic Harlem Neighborhood,Harlem,33362434,Melani,Manhattan,40.81795,-73.94099,Private room,100,2,0,,,1,15
21312549,1,Hillside Hotel,134184451,Hillside Hotel,Queens,Jamaica,40.70262,-73.81579,Private room,165,1,0,,,18,355,Hillside Hotel,Jamaica,134184451,Hillside Hotel,Queens,40.70428,-73.81353,Private room,135,1,0,,,18,365
14419516,0,Spacious sunny bedroom (B) - East Village,3417321,David,Manhattan,East Village,40.72935,-73.9871,Private room,150,2,9,2019-06-23,0.26,2,0,Cozy Brooklyn Nook w/Quick Manhattan Access,Downtown Brooklyn,85852354,Janli,Brooklyn,40.69032,-73.9871,Private room,85,2,26,2019-05-31,2.39,1,0
35991548,0,Serenity,266981597,Loves,Brooklyn,Flatbush,40.65087,-73.95566,Entire home/apt,123,1,0,,,1,365,Beautiful Brownstone on Tree Lined Block,Crown Heights,52243765,Jessie,Brooklyn,40.67851,-73.95566,Private room,50,3,0,,,1,0
21966498,0,An apartment in the heart of Williamsburg,9640114,Alexander,Brooklyn,Williamsburg,40.71171,-73.95491,Private room,120,2,2,2018-01-02,0.1,1,0,Very Sunny 1br in Bedstuy - Dog and Kids Friendly,Bedford-Stuyvesant,280693,Auralís,Brooklyn,40.68806,-73.95491,Entire home/apt,200,2,13,2017-12-27,0.37,1,0
36345739,0,Your Finest room in Gramercy,111020505,Maja,Manhattan,Kips Bay,40.74049,-73.98184,Private room,57,30,0,,,1,253,Luxurious Smart Home in Gramercy Park,Gramercy,55560532,Maxim,Manhattan,40.73825,-73.98184,Entire home/apt,690,2,0,,,1,66
26886071,0,Overlooking Tompkins Sq Park in the East Village,5073548,David,Manhattan,East Village,40.72696,-73.9811,Entire home/apt,300,3,6,2019-03-10,0.94,1,0,Cozy spacious 1 bed in Murray Hill,Kips Bay,9622750,Taran Pal,Manhattan,40.74392,-73.9811,Private room,90,3,12,2016-03-08,0.18,3,0
4379145,0,specious 1bd apt on Saint Marks Pl,16598048,Yervand,Manhattan,East Village,40.72902,-73.98814,Entire home/apt,248,6,1,2014-11-02,0.02,1,0,Luxury High-Rise in Center of NYC/Manhattan,Midtown,6415669,Nisha,Manhattan,40.74832,-73.98814,Entire home/apt,190,6,0,,,1,0
27056608,0,Home away from Home,17322419,Ohran,Manhattan,Kips Bay,40.74079,-73.98303,Entire home/apt,750,31,0,,,1,365,Large 1-BR Apt w/Fireplace & Patio,Midtown,11339193,Rachel,Manhattan,40.74364,-73.98303,Entire home/apt,1000,3,0,,,1,0
15739930,0,Cozy Room Amazingly Located in Williamsburg !,44706272,Sophia And Shannon,Brooklyn,Williamsburg,40.70835,-73.955,Private room,45,3,4,2017-07-30,0.13,1,0,Private room in Brooklyn,Sheepshead Bay,4368043,Nika Nurkyz,Brooklyn,40.60738,-73.955,Private room,55,3,0,,,1,0
6509750,0,Art Deco NYC Upper West 2br Apt,696487,Ted,Manhattan,Upper West Side,40.7837,-73.97851,Entire home/apt,385,30,0,,,1,0,Studio Apartment in Murray Hill,Murray Hill,96317547,Adam,Manhattan,40.74827,-73.97851,Private room,120,3,0,,,1,0
24014307,0,In the Heights!,180720187,Peter,Manhattan,Washington Heights,40.83432,-73.94457,Private room,48,3,3,2019-01-06,0.19,1,0,Private clean room in Manhattan,Harlem,71865037,Elinor,Manhattan,40.82032,-73.94457,Private room,49,3,0,,,1,0
31070935,0,Cozy room in duplex apartment - terrace with view,232112395,Alessandro,Brooklyn,Crown Heights,40.67686,-73.93159,Private room,45,14,0,,,1,30,Astoria Queens great room for rent!,Astoria,24109809,Jonathon,Queens,40.77271,-73.93159,Private room,200,1,0,,,1,0
6626581,0,Cute East Village 2BR,27077862,Alex,Manhattan,East Village,40.72699,-73.98694,Entire home/apt,200,1,0,,,1,0,Stylish 1BR with back patio in Hell's Kitchen,Theater District,241513556,Hunter,Manhattan,40.76106,-73.98694,Entire home/apt,170,2,0,,,1,0
7709293,0,master bedroom in a 4 bed 2 bath,40498479,Meryl,Manhattan,Harlem,40.82364,-73.95122,Private room,59,1,0,,,1,0,Entire 1BD Apt in Long Island City!,Long Island City,828682,Leora,Queens,40.74264,-73.95122,Entire home/apt,200,1,2,2015-12-01,0.04,1,0
36042368,0,Colorful + Comfortable Downtown NYC Apartment,32768394,Andrea,Manhattan,East Village,40.72338,-73.9851,Entire home/apt,180,3,0,,,1,17,Large Sunny Private Bedroom,Gowanus,16533401,Aaron,Brooklyn,40.67781,-73.9851,Private room,130,1,0,,,1,0
9792720,0,Semi-Private Room Next to TimeSqare,20337316,Matt,Manhattan,Hell's Kitchen,40.76646,-73.99345,Shared room,65,1,1,2015-12-24,0.02,1,0,Twin Cabin with a Window One,Nolita,51913826,The Bowery House,Manhattan,40.72311,-73.99345,Private room,94,1,1,2019-03-24,0.28,8,0
36282337,0,Sunny Jr 1 Bed in Clinton Hill,17211451,Jamila,Brooklyn,Clinton Hill,40.68316,-73.96289,Entire home/apt,84,30,0,,,1,39,"Charming, Spacious 1 Bd-Great area!",Flatbush,5895565,Sarah,Brooklyn,40.64123,-73.96289,Entire home/apt,85,21,0,,,1,0
573671,1,Luminous Modern Apt Share for Young Professionals,2822805,Ollie,Brooklyn,Bedford-Stuyvesant,40.68586,-73.9501,Private room,60,30,41,2019-02-23,0.65,8,245,Luminous Modern Apt Share for Young Professionals,Bedford-Stuyvesant,2822805,Ollie,Brooklyn,40.68563,-73.94953,Private room,60,30,23,2019-03-29,0.48,8,244
10473052,0,Room in the heart of Williamsburg,41832478,Caroline,Brooklyn,Williamsburg,40.71852,-73.95897,Private room,70,1,0,,,1,0,Spacious 1 bedroom,Morningside Heights,2484520,Marcus,Manhattan,40.81033,-73.95897,Private room,150,1,0,,,1,0
36061719,0,Private Studio-Bedroom in Duplex in Williamsburg,271282883,Terence,Brooklyn,Greenpoint,40.72779,-73.94081,Private room,99,6,0,,,2,54,Geometric Getaway,Washington Heights,19544315,Cal,Manhattan,40.83318,-73.94081,Private room,35,1,0,,,2,0
12343127,0,Centre of Williamsburg,8854804,Nicolin,Brooklyn,Williamsburg,40.71635,-73.95746,Private room,100,3,0,,,1,0,Sunny Prospect Park 2 Bedroom,Prospect-Lefferts Gardens,19233353,Kallie,Brooklyn,40.65599,-73.95746,Private room,60,3,0,,,2,0
10679740,0,Spacious Cute room in Williamsburg,55165952,Liz,Brooklyn,Williamsburg,40.71507,-73.94093,Private room,60,1,0,,,1,0,Cozy bedroom near George Washington Bridge,Washington Heights,80901099,Yifei,Manhattan,40.85019,-73.94093,Shared room,40,1,0,,,1,0
8614125,0,Cozy One Bedroom -Beautiful Terrace,45315085,Anthony,Manhattan,Upper West Side,40.77866,-73.98065,Entire home/apt,275,1,0,,,1,0,Cute Room in Downtown BK,Boerum Hill,7953376,Mary,Brooklyn,40.68558,-73.98065,Private room,65,1,0,,,1,0
32094042,1,Flushing downtown Single room,228879817,Vicky,Queens,Flushing,40.74588,-73.83284,Private room,49,1,14,2019-07-02,2.76,6,121,Flushing downtown Single room,Flushing,228879817,Vicky,Queens,40.74523,-73.83321,Private room,42,1,20,2019-07-07,4.26,6,157
4384442,0,Bedroom in Crown Heights,7010789,Adriana,Brooklyn,Crown Heights,40.67054,-73.95668,Private room,45,2,1,2016-06-29,0.03,1,0,Hamiliton Heights Home,Harlem,33363604,Lauren,Manhattan,40.81934,-73.95668,Private room,50,2,0,,,1,0
13397781,0,Sunny South Williamsburg Apartment,3386627,Sarah,Brooklyn,Williamsburg,40.71035,-73.95332,Entire home/apt,185,3,0,,,1,0,"Spacious, Bright, & Modern Apt",Bedford-Stuyvesant,81928,Evan,Brooklyn,40.6856,-73.95332,Entire home/apt,150,3,45,2018-12-24,0.96,1,0
22251732,0,Bed-Stuy (20mins to Manhattan/Williamsburg/Queens),162598902,Finnían,Brooklyn,Bedford-Stuyvesant,40.6861,-73.95161,Private room,40,4,2,2018-01-01,0.11,1,0,Private Apartment for Discerning Travelers,Harlem,16200683,Motonobu,Manhattan,40.81246,-73.95161,Entire home/apt,155,4,18,2019-04-20,1.05,1,0
35461822,1,Artsy Private BR in Fort Greene Cumberland,230192510,Zach,Brooklyn,Fort Greene,40.69706,-73.974,Private room,48,30,0,,,25,67,Artsy Private BR in Fort Greene Cumberland,Fort Greene,230192510,Zach,Brooklyn,40.69617,-73.97532,Private room,48,30,0,,,25,341
22957090,0,One Room in Dreamy Bushwick Apartment,27070336,Andrea,Brooklyn,Bushwick,40.68588,-73.9144,Private room,75,2,0,,,1,0,Comfortable room near everything,Ditmars Steinway,3974808,Noah,Queens,40.7778,-73.9144,Private room,150,1,0,,,1,0
30733576,0,king size bed in hip LES -subway outside,19052001,Madison,Manhattan,Lower East Side,40.7124,-73.99054,Private room,80,2,3,2019-03-02,0.6,1,0,Two Bedroom Apartment,East Village,46976876,Carolina,Manhattan,40.72537,-73.99054,Entire home/apt,250,2,0,,,2,0
10755640,0,Artist friendly: cozy&sunny in quiet Prospect Park,25514430,Alisha,Brooklyn,Prospect-Lefferts Gardens,40.65846,-73.9489,Entire home/apt,50,6,1,2017-08-08,0.04,1,0,Intimate and cozy,Harlem,47121117,Cindy,Manhattan,40.80097,-73.9489,Private room,89,1,8,2017-08-08,0.21,1,0
27168097,0,Prime Williamsburg location! High ceilings!,54541149,J,Brooklyn,Williamsburg,40.7159,-73.95905,Private room,75,2,1,2018-07-29,0.09,1,0,Spacious 1 Bedroom in the Heart of Greenpoint,Greenpoint,86210707,Paul,Brooklyn,40.72859,-73.95905,Entire home/apt,110,2,2,2019-06-22,2.0,1,0
33683557,0,Beautiful Room in Williamsburg Loft,24064771,Damasia,Brooklyn,Williamsburg,40.7077,-73.9435,Private room,65,7,0,,,1,0,Convenient Studio Apartment!,Harlem,3068641,Erum,Manhattan,40.80806,-73.9435,Entire home/apt,100,4,0,,,1,0
13565060,0,AWESOME MODERN WILLIAMSBURG APT AVAILABLE,14017165,Daniel,Brooklyn,Williamsburg,40.70744,-73.94485,Private room,58,2,1,2016-06-27,0.03,1,0,Private Room - BedStuy - 2 Flr Unit,Bedford-Stuyvesant,45513630,Thomas,Brooklyn,40.69492,-73.94485,Private room,25,2,1,2015-11-12,0.02,1,0
7817350,0,1 Room in 3 bedroom Apt - 70s & 3rd,38301594,Shana,Manhattan,Upper East Side,40.77441,-73.95692,Private room,100,1,0,,,2,0,Cozy Couch in Wburg,Williamsburg,8255157,Chris,Brooklyn,40.71182,-73.95692,Shared room,130,1,0,,,1,0
4512329,0,Spacious Room in Sugar Hill,16685925,Douglas,Manhattan,Washington Heights,40.83089,-73.94125,Private room,49,3,3,2016-07-14,0.05,2,0,Bedstuyvesant Apartment,Bedford-Stuyvesant,81087558,Eric,Brooklyn,40.68423,-73.94125,Entire home/apt,75,3,3,2018-11-05,0.22,1,0
20664395,0,Entire Apartment  Park Slope,3894387,René,Brooklyn,South Slope,40.6628,-73.98349,Entire home/apt,111,2,1,2017-09-08,0.04,1,0,Peaceful Bedroom with private balcony in LES,Lower East Side,19053159,Nikki,Manhattan,40.71875,-73.98349,Private room,60,2,2,2018-03-21,0.12,1,0
17776104,0,Private room in East Harlem close to heart of NYC,38772311,Sophie,Manhattan,East Harlem,40.80113,-73.94283,Private room,100,2,0,,,1,0,Bohemian Bedroom for Art Lovers,Williamsburg,2276842,Debbie,Brooklyn,40.7054,-73.94283,Private room,80,2,5,2017-01-01,0.15,2,0
20035842,0,"GIRLS ONLY Romantic, antique, & cozy room",131767309,K,Manhattan,Two Bridges,40.71138,-73.99635,Private room,35,1,2,2018-01-01,0.11,1,0,Cozy room in Nolita/SoHo,Nolita,4271676,Nat,Manhattan,40.7214,-73.99635,Private room,100,1,18,2017-06-06,0.38,3,0
5205123,0,"Spacious, Bright, & Modern Apt",81928,Evan,Brooklyn,Bedford-Stuyvesant,40.6856,-73.95332,Entire home/apt,150,3,45,2018-12-24,0.96,1,0,Sunny apartment in the heart of Greenpoint!,Greenpoint,66473223,Roger,Brooklyn,40.73324,-73.95332,Entire home/apt,110,3,1,2019-06-01,0.79,1,0
20712652,0,"Beautiful NYC Room - Upper East Side, NYC",38344324,Charles,Manhattan,Upper East Side,40.77237,-73.95275,Private room,95,2,42,2019-01-01,1.9,1,0,Spacious Light Palace in Heart of Williamsburg,Williamsburg,6574489,Jilly,Brooklyn,40.71769,-73.95275,Private room,95,2,9,2017-03-16,0.24,1,0
6169981,0,Spacious Gramercy Penthouse Studio,32011239,Mike,Manhattan,Gramercy,40.73556,-73.98679,Entire home/apt,200,2,14,2016-09-10,0.28,1,0,One Bedroom Apartment in Greenpoint,Greenpoint,9010955,Lindsey,Brooklyn,,-73.95726,Entire home/apt,200,2,5,2019-05-12,0.37,2,7
12175508,0,Quaint room in East Village walk-up,65415391,Katherine,Manhattan,East Village,40.73185,-73.98431,Private room,100,1,0,,,1,0,Upper West Side 1 bedroom,Upper West Side,5775272,Lindsey,Manhattan,40.78406,-73.98431,Entire home/apt,125,1,0,,,1,0
9731739,0,2BR - TIMES SQUARE - MODERN,34939187,Meredith,Manhattan,Hell's Kitchen,40.76564,-73.98759,Entire home/apt,195,3,30,2016-10-23,0.68,1,0,Comfy 1 Bedroom Apt with Guest Room,Park Slope,26951283,Alexsis,Brooklyn,40.67092,-73.98759,Entire home/apt,100,2,4,2016-10-23,0.08,1,0
7417520,0,East Village Two Bedroom,37028138,Matt,Manhattan,East Village,40.72228,-73.9838,Entire home/apt,250,3,21,2017-11-26,0.44,1,0,Private room in shared lovely apartment,Gramercy,70640922,Enzo,Manhattan,40.73314,-73.9838,Private room,115,3,6,2018-12-16,0.59,1,0
13902088,0,Peaceful and Spacious Master Bedroom,82412007,Janet,Manhattan,Gramercy,40.73517,-73.98176,Private room,120,2,3,2017-11-25,0.14,1,0,"Central 1 bdrm, W/D, roof deck",Kips Bay,26958002,Justin,Manhattan,40.74041,-73.98176,Entire home/apt,225,2,2,2015-06-25,0.04,1,0
30429113,0,Minimalist Studio in Central Downtown,17040751,Jaisy,Manhattan,Civic Center,40.71224,-74.00684,Entire home/apt,150,90,0,,,1,0,The Archive West Village,West Village,30707611,Beth,Manhattan,40.73123,-74.00684,Entire home/apt,450,1,0,,,1,0
35681112,0,Old world oasis of calm nestled in a vibrant hood,4363908,James Abordo,Brooklyn,Bedford-Stuyvesant,40.68479,-73.94416,Private room,75,2,0,,,1,14,Colorful 2 Bedroom in Brooklyn,Williamsburg,19663195,Alison,Brooklyn,40.71863,-73.94416,Entire home/apt,75,24,0,,,1,27
8372650,0,Luxurious 1BR in Herald Square,25360921,Darwaysh,Manhattan,Midtown,40.74911,-73.9877,Entire home/apt,300,3,0,,,1,0,"Beautiful 2 BR apt, UWS",Upper West Side,264810896,Christine,Manhattan,40.7715,-73.9877,Entire home/apt,240,3,0,,,1,58
3435260,1,Private Sunny Room in Park Slope,17315514,Ana,Brooklyn,Sunset Park,40.66201,-73.99719,Private room,50,10,1,2016-11-08,0.03,2,0,Private Sunny Room in Park Slope,Sunset Park,17315514,Ana,Brooklyn,40.66168,-73.99827,Private room,50,7,1,2018-05-13,0.07,2,0
36373544,0,Large studio with tall ceiling near Central Park,35141789,Janey,Manhattan,Upper East Side,40.78332,-73.95155,Entire home/apt,100,10,0,,,1,21,Bright Room at the Hudson!,Harlem,3944633,Siobhan,Manhattan,40.82782,-73.95155,Private room,79,1,0,,,1,0
36112704,0,Bright & Cozy Brooklyn Apartment,713116,June,Brooklyn,Prospect-Lefferts Gardens,40.65633,-73.95722,Entire home/apt,145,4,0,,,1,41,"Clean, quiet, cozi Upper East Side studio apt",Upper East Side,24494897,Isabella,Manhattan,40.76704,-73.95722,Entire home/apt,159,6,0,,,1,0
6761717,0,Brooklyn Heights Brownstone Duplex,1549503,Alison,Brooklyn,Brooklyn Heights,40.69009,-73.99355,Entire home/apt,195,3,1,2015-06-28,0.02,1,0,Calm&Cozy Bedroom - NoLIta/SoHo (private bathroom),Nolita,1120651,Orianna,Manhattan,40.72413,-73.99355,Private room,118,3,10,2017-09-09,0.29,1,0
10546606,0,Cozy Private Room in Spacious Apt,13558726,Dory,Brooklyn,Bedford-Stuyvesant,40.68645,-73.95711,Private room,45,7,0,,,1,0,UES Gorgeous Apartment - 2 Blocks from the Met,Upper East Side,22902111,Séhzad,Manhattan,40.77774,-73.95711,Entire home/apt,400,5,0,,,1,0
4635425,0,Modern Studio with Loft in the LES.,23876129,Juan Carlos,Manhattan,Chinatown,40.71648,-73.9912,Entire home/apt,175,4,57,2017-03-02,1.04,1,0,Cozy room in 2br Cobble Hill apartment,Carroll Gardens,156959,Ekaterina,Brooklyn,40.68342,-73.9912,Private room,90,4,1,2016-10-02,0.03,2,0
31201553,0,Brooklyn bedroom and open basement,350088,Richard,Brooklyn,Williamsburg,40.72023,-73.9585,Private room,200,2,1,2019-01-27,0.18,1,0,"1 BR/BA right next to trains, Central Park + more",Upper East Side,41265342,Michael,Manhattan,40.76769,-73.9585,Entire home/apt,115,2,7,2017-06-18,0.2,1,0
24853574,0,The Amazing Stay,187872824,Erik,Manhattan,Upper West Side,40.80013,-73.95907,Entire home/apt,150,1,6,2018-06-19,0.43,2,179,Comfortable home for all your needs!!!,East Harlem,173311396,Lyuba,Manhattan,,-73.93742,Entire home/apt,150,1,5,2019-06-23,2.88,1,21
25232501,0,Modern luxury apartment 15 mins to central park!,7228086,John,Queens,Long Island City,40.75178,-73.93973,Entire home/apt,200,2,4,2018-10-25,0.33,1,0,Big Sunny Room 10secs from L train,Williamsburg,1641589,Lauren,Brooklyn,40.71172,-73.93973,Private room,60,2,0,,,1,0
35798611,0,Recording Studio Overnight Stays. Downton Bklyn,37424221,Trevor,Brooklyn,Downtown Brooklyn,40.69677,-73.98155,Private room,100,2,0,,,1,365,"Steps from Central Park, private bdrm, 2 full bath",Midtown,93533725,Christine,Manhattan,40.76465,-73.98155,Private room,350,2,0,,,1,38
12019843,0,Full-size loft bed in East Village,14476679,Michael,Manhattan,East Village,40.72659,-73.97848,Private room,70,1,3,2016-06-26,0.08,1,0,Sunny bedroom in gorgeous ParkSlope,Park Slope,49024977,Shelby,Brooklyn,40.67687,-73.97848,Private room,80,1,2,2016-06-05,0.05,1,0
18946117,0,Sunny 2 bedroom apartment on Upper East Side,590825,Alex,Manhattan,Upper East Side,40.77559,-73.95033,Entire home/apt,160,2,2,2017-08-12,0.08,1,0,"Charming, small and cozy",East Flatbush,13540183,Ashley,Brooklyn,40.63676,-73.95033,Private room,150,2,0,,,1,0
36312994,0,Cosy and quiet studio near Columbia University,2019485,Maria,Manhattan,Morningside Heights,40.8075,-73.96679,Entire home/apt,103,3,0,,,1,40,Private  furnished 1BR in a 4BR on Upper West Side,Upper West Side,23672310,Samuel,Manhattan,40.80057,-73.96679,Private room,95,4,0,,,1,0
21312732,1,Hillside Hotel,134184451,Hillside Hotel,Queens,Briarwood,40.70455,-73.81528,Private room,135,1,0,,,18,309,Hillside Hotel,Briarwood,134184451,Hillside Hotel,Queens,40.70471,-73.81542,Private room,135,1,3,2018-01-01,0.15,18,319
23919507,0,Large Sunny Bedroom in 2 bedroom Apt. near train,39531110,Josseline,Brooklyn,Gravesend,40.60663,-73.9821,Private room,29,2,1,2018-06-11,0.08,1,0,Bright Brooklyn Bedroom Close to Prospect Park,South Slope,2903817,Erica,Brooklyn,40.66185,-73.9821,Private room,149,2,16,2018-11-18,1.26,1,0
20332555,0,Beautiful Apartment near Times Square Central Park,143944704,Ash,Manhattan,Theater District,40.76302,-73.98211,Entire home/apt,239,3,104,2019-06-22,4.53,1,0,Penthouse in Midtown Manhattan,Midtown,82054811,Carol,Manhattan,40.76518,-73.98211,Private room,500,3,0,,,1,0
7697161,0,Beautiful 1 BR w/ Private Backyard,40427171,Lyle,Brooklyn,Cobble Hill,40.68665,-73.9922,Entire home/apt,125,1,0,,,1,0,Cozy studio apartment Lower East Side / Lil Italy,Lower East Side,67754093,Jayd,Manhattan,40.72013,-73.9922,Entire home/apt,135,14,0,,,1,0
36421287,0,Nice & Lovely room in LIC.5 stops to Times Square,203866020,Karma,Queens,Sunnyside,40.73799,-73.92749,Private room,60,1,0,,,1,34,Furnished bedroom with queen bed desk and wifi,Bedford-Stuyvesant,4297835,Shaun,Brooklyn,40.68269,-73.92749,Private room,75,2,0,,,1,0
12983699,1,"East 82nd Street, Upper East Side/Yorkville 1bd",22541573,Ken,Manhattan,Upper East Side,40.77301,-73.95045,Entire home/apt,169,30,1,2018-11-11,0.13,87,347,"East 82nd Street, Upper East Side/Yorkville 1bd",Upper East Side,22541573,Ken,Manhattan,40.77327,-73.94939,Entire home/apt,165,30,0,,,87,355
22088100,0,"Bright and Warm place -
only 17min to Central Park",161351021,V,Queens,Woodside,40.75593,-73.90268,Private room,425,1,11,2018-03-01,0.58,2,0,Airy livingroom in quiet restaurant neighborhood !,Ditmars Steinway,28868609,John,Queens,40.77266,-73.90268,Shared room,100,1,1,2016-05-23,0.03,1,0
12905314,0,Medium sunny furnished room,16414492,Julia Marie,Manhattan,Washington Heights,40.83873,-73.94118,Private room,45,1,6,2017-07-18,0.16,1,0,Comfy Queen Bed in Harlem,Harlem,81080113,Christopher,Manhattan,40.81893,-73.94118,Private room,90,1,0,,,1,0
10680745,0,Private huge BDR in East Village!,29882817,Nick,Manhattan,East Village,40.72553,-73.9777,Private room,70,4,0,,,1,0,Super Bowl 2014,Midtown,11371978,Joe,Manhattan,40.76402,-73.9777,Entire home/apt,750,4,0,,,1,0
19079187,1,Clean Midtown Rooms in heart of NYC,60993452,Charles,Manhattan,Murray Hill,40.74846,-73.9758,Private room,40,4,3,2017-06-18,0.12,2,0,Clean Midtown Rooms in heart of NYC,Murray Hill,60993452,Charles,Manhattan,40.74763,-73.97602,Private room,52,3,4,2017-06-23,0.16,2,0
9933667,0,Large Sunny Studio with a View!,31222791,Emily,Brooklyn,Prospect-Lefferts Gardens,40.65986,-73.96163,Entire home/apt,100,1,15,2017-12-25,0.35,1,0,Charming sunny room in Brooklyn,Clinton Hill,19808313,Georgia,Brooklyn,40.68316,-73.96163,Entire home/apt,103,1,0,,,1,0
22656685,0,Elk Lodge,166884908,Devon,Queens,Long Island City,40.75853,-73.94304,Private room,50,1,0,,,1,0,Spacious WA Heights Apt Next to Subway,Washington Heights,13010274,Sarah,Manhattan,40.83433,-73.94304,Shared room,75,1,0,,,1,0
18957055,0,Spacious Studio - Near Park & MTASubway,35201199,Ali,Brooklyn,Windsor Terrace,40.64882,-73.97629,Entire home/apt,68,2,5,2017-09-24,0.2,1,0,Bright and Cozy Studio in Murray Hill,Murray Hill,10574166,Carolyn,Manhattan,40.74681,-73.97629,Entire home/apt,150,2,17,2018-12-26,1.19,1,0
1382607,0,Family-Friendly 3 BR in Cobble Hill,6245535,Jennifer,Brooklyn,Carroll Gardens,40.68298,-73.99171,Entire home/apt,259,1,2,2016-08-22,0.04,1,0,Free bottle of wine with stay!,Chelsea,168308087,Sarah,Manhattan,40.73686,-73.99171,Entire home/apt,75,1,0,,,1,0
16814818,0,Cozy Bedroom in the Heart of Downtown Manhattan,111849930,Kaitlin,Manhattan,Lower East Side,40.72275,-73.98918,Private room,120,4,0,,,1,0,Gorgeous Home with Private Terrace: Union Square!,Gramercy,9282079,Justine,Manhattan,40.73581,-73.98918,Entire home/apt,245,4,12,2019-05-25,0.62,1,0
13939924,0,Spectacular Views! Gorgeous 25th flr Columbus Cl,17551179,Marissa,Manhattan,Midtown,40.76618,-73.98279,Entire home/apt,225,1,0,,,1,0,Well-Lit Apartment in the East Village!,East Village,66111674,Charles,Manhattan,40.72545,-73.98279,Private room,75,1,15,2018-07-22,0.88,1,0
10083580,0,Cozy apartment in Brooklyn,22068394,Julian,Brooklyn,Bedford-Stuyvesant,40.69176,-73.94765,Private room,58,2,2,2016-06-13,0.05,1,0,Uptown Chic,Harlem,1418854,Charli,Manhattan,40.83021,-73.94765,Private room,60,2,0,,,1,0
35461822,1,Artsy Private BR in Fort Greene Cumberland,230192510,Zach,Brooklyn,Fort Greene,40.69706,-73.974,Private room,48,30,0,,,25,67,Artsy Private BR in Fort Greene Cumberland,Fort Greene,230192510,Zach,Brooklyn,40.69749,-73.97551,Private room,48,30,0,,,25,257
32696766,0,Cozy East Village Apartment,228235742,Amber,Manhattan,East Village,40.72412,-73.98891,Private room,100,1,0,,,1,0,A dreamy stay,Hell's Kitchen,267476000,Xanthi,Manhattan,40.76369,-73.98891,Private room,100,1,0,,,1,167
30156697,1,WEST VILLAGE Bohemian flat in neo-Tudor town house,27636707,Gaia&Pietro,Manhattan,West Village,40.73181,-74.00606,Entire home/apt,300,3,21,2019-07-01,5.25,5,308,WEST VILLAGE Bohemian flat in neo-Tudor town house,West Village,27636707,Gaia&Pietro,Manhattan,40.73367,-74.00497,Entire home/apt,250,3,2,2019-06-20,0.88,5,265
35461013,1,Artsy Private BR in Fort Greene Cumberland,230192510,Zach,Brooklyn,Fort Greene,40.69747,-73.97506,Private room,48,30,0,,,25,310,Artsy Private BR in Fort Greene Cumberland,Fort Greene,230192510,Zach,Brooklyn,40.6971,-73.97523,Private room,48,30,0,,,25,305
23363336,0,Manhattan clean. warm. safe room / 6 train,174124006,Chanhee,Manhattan,East Harlem,40.7975,-73.93556,Private room,60,1,61,2019-06-27,3.67,1,45,The Most Delicious Airbnb Ever,Bedford-Stuyvesant,24288568,Micah,Brooklyn,40.69506,-73.93556,Private room,100,1,54,2019-06-16,3.45,1,45
7699516,0,HUGE 2 bdrm 30 m ride from Midtown,40443551,Sherry,Manhattan,Washington Heights,40.8508,-73.94004,Entire home/apt,112,1,1,2015-09-02,0.02,1,0,Cozy Room for Rent in Williamsburg!,Williamsburg,51439873,Nina,Brooklyn,40.71557,-73.94004,Private room,75,1,0,,,1,0
19856899,0,Home away from home,67739226,Vipul,Manhattan,Upper West Side,40.77141,-73.98862,Shared room,50,1,0,,,1,0,Flatiron-Designer's loft,Flatiron District,1970839,Javier,Manhattan,40.74125,-73.98862,Entire home/apt,350,7,0,,,1,0
11837681,0,"Private bedroom rental, spacious",44071830,Sharon,Manhattan,East Harlem,40.78583,-73.94316,Private room,60,1,0,,,1,0,Room in Renovated BK Brownstone,Bedford-Stuyvesant,17001409,Caitlin,Brooklyn,40.69443,-73.94316,Private room,40,1,5,2016-06-07,0.13,1,0
34995166,0,Charming apartment next to the bridge,263439936,Kayla,Brooklyn,Williamsburg,40.71114,-73.96153,Private room,70,14,0,,,1,139,Georgous 3BD in 24-hr doorman bldg,Upper East Side,12622830,Ana,Manhattan,40.77979,-73.96153,Entire home/apt,600,1,0,,,1,0
36004912,0,"Cozy ,quiet with lots of attractions near by",85518583,Matany,Brooklyn,Williamsburg,40.7191,-73.95685,Entire home/apt,151,14,0,,,1,25,2 Bedrooms Available in Upper West Manhattan,Harlem,133274871,Deborah,Manhattan,40.81513,-73.95685,Private room,51,5,0,,,1,0
24395331,0,"Comfortable king bedroom, office, and kids' room",6059987,Andrew,Brooklyn,Crown Heights,40.67718,-73.95566,Private room,95,1,2,2018-07-20,0.17,1,0,Sunny in heart of Williamsburg,Williamsburg,57275881,Allegra,Brooklyn,40.71187,-73.95566,Entire home/apt,250,1,0,,,1,0
33473671,0,"Clean, cool and modern downtown apartment",44129118,Anthony,Manhattan,Financial District,40.70997,-74.00816,Private room,150,4,0,,,2,0,SWING FROM THE CHANDELIER,Tribeca,29941633,William,Manhattan,40.71454,-74.00816,Entire home/apt,850,4,0,,,1,0
22243957,0,Huge cozy artist haven in heart of Hamilton Hts.,5026324,Sean,Manhattan,Harlem,40.83029,-73.94962,Private room,79,2,1,2018-01-02,0.05,1,0,Spanish Harlem with terrace.,East Harlem,36644635,Ingrid,Manhattan,40.79229,-73.94962,Private room,80,2,142,2018-12-16,3.05,1,0
1183236,0,Fantastic 1 BR in massive share.,6472794,Joel,Queens,Long Island City,40.74984,-73.91834,Private room,60,1,0,,,1,0,Beautiful Room with Private Balcony,Bushwick,25752230,Bruno,Brooklyn,40.69224,-73.91834,Private room,69,2,0,,,1,0
9184982,0,Cozy Bedroom in Harlem,31291159,Sean,Manhattan,Harlem,40.81686,-73.94129,Private room,47,7,2,2015-12-09,0.04,1,0,"Master Bedroom w/ TV, AC, King Sized Bed",East Harlem,31314659,Muneer,Manhattan,40.79439,-73.94129,Private room,75,7,0,,,1,0
3283729,0,"Beautiful, Furnished Studio!",16596651,Gautam,Manhattan,Upper East Side,40.77787,-73.95104,Entire home/apt,125,4,7,2015-11-15,0.11,1,0,Cozy and Clean Room,Williamsburg,39975694,Dante,Brooklyn,40.70813,-73.95104,Private room,80,4,0,,,1,0
12054286,0,Private Room in Upper West Side,45103252,Ruokun,Manhattan,Upper West Side,40.78807,-73.97406,Private room,75,1,0,,,1,0,Charming 1BR in Brooklyn Brownstone,Fort Greene,4471002,Janet,Brooklyn,40.68914,-73.97406,Entire home/apt,200,1,0,,,2,0
793590,0,Sunny in the Heart of Williamsburg,2450605,Jennifer,Brooklyn,Williamsburg,40.72034,-73.95669,Entire home/apt,225,1,0,,,1,0,Room in sunny art-filled apartment,Harlem,5075103,Shawn,Manhattan,40.82127,-73.95669,Private room,55,1,1,2016-08-22,0.03,2,0
14716155,1,20-25 minutes to downtown NYC/30-40 to midtown,89769986,Alan,Brooklyn,Bedford-Stuyvesant,40.69625,-73.93696,Private room,55,30,85,2019-05-05,2.45,4,232,20-25 minutes to downtown NYC/30-40 to midtown,Bedford-Stuyvesant,89769986,Alan,Brooklyn,40.69568,-73.93384,Private room,50,30,97,2019-05-04,2.79,4,312
32593295,0,"Summer! UES, 3-bed a block from Central Park!",244977552,Patty,Manhattan,Upper East Side,40.78609,-73.95341,Entire home/apt,225,3,0,,,1,166,Sunny room 30 min from Manhattan,Flatbush,10077626,Nelesi,Brooklyn,40.65208,-73.95341,Private room,50,10,0,,,1,0
1886240,0,June 30 Th to August 31 st,9813233,Tao,Manhattan,SoHo,40.72617,-74.00141,Entire home/apt,245,1,0,,,1,0,Cozy Chelsea Carriage House Apt,Chelsea,19390428,Ardeana,Manhattan,40.74157,-74.00141,Entire home/apt,240,1,0,,,1,0
12007258,0,Spacious One Bedroom with Private Roof,59489089,Molly,Brooklyn,Bedford-Stuyvesant,40.68813,-73.95773,Entire home/apt,200,3,6,2018-07-31,0.15,1,0,BEAUTIFUL BRAND NEW MODERN WILLIAMSBURG APT,Williamsburg,7116018,Brittini,Brooklyn,40.71041,-73.95773,Entire home/apt,200,3,0,,,1,0
8087725,0,Beautiful Upper East 1 Bedroom,12483260,Chris,Manhattan,Upper East Side,40.77343,-73.95651,Entire home/apt,118,1,1,2015-08-31,0.02,1,0,stylish apartment w/ backyard,Greenpoint,6223874,Rachael,Brooklyn,40.73059,-73.95651,Entire home/apt,185,1,3,2017-02-11,0.06,1,0
21733463,0,Great Loft Space in Bushwick With Private Bedroom,506299,Ana Sofia,Brooklyn,Bushwick,40.70668,-73.92099,Private room,55,8,0,,,1,0,Cute apartment in Sunnyside,Sunnyside,26921025,Ellie,Queens,40.73811,-73.92099,Entire home/apt,99,1,0,,,1,0
22294260,0,Great 2bedroom in harlem,122919892,John,Manhattan,Harlem,40.82392,-73.94537,Entire home/apt,129,5,0,,,1,0,Unfurnished 2 bedrooms for rent at the end of May!,Crown Heights,130005087,Adé,Brooklyn,40.67371,-73.94537,Private room,85,5,0,,,1,0
33982630,1,WEST VILLAGE Bohemian flat in neo-Tudor town house,27636707,Gaia&Pietro,Manhattan,West Village,40.73367,-74.00497,Entire home/apt,250,3,2,2019-06-20,0.88,5,265,WEST VILLAGE Bohemian flat in neo-Tudor town house,West Village,27636707,Gaia&Pietro,Manhattan,40.73389,-74.00646,Entire home/apt,285,3,12,2019-07-04,1.76,5,313
36205494,0,bensonhurst area,60456157,Muhammad Tahir Khan,Brooklyn,Gravesend,40.59671,-73.98741,Private room,85,7,0,,,1,365,Lower East Side 1-Bedroom,Lower East Side,273568164,Doug,Manhattan,40.71958,-73.98741,Entire home/apt,198,30,0,,,1,152
30857971,0,Luxury apartment in UES,39548500,Silvio,Manhattan,Upper East Side,40.779,-73.95298,Entire home/apt,300,3,4,2019-02-17,0.65,1,0,Cute and Comfy Bedroom,Bedford-Stuyvesant,2514859,Meghan,Brooklyn,40.68719,-73.95298,Private room,60,3,2,2018-09-10,0.11,2,0
21865904,0,Spacious room with private entrance.,133564044,Kaya,Brooklyn,Flatbush,40.6429,-73.95253,Private room,80,1,1,2018-01-01,0.05,1,0,Large modern 1BR w/ Balcony!,Upper East Side,31796292,Mary,Manhattan,40.777,-73.95253,Entire home/apt,350,1,0,,,1,0
22064197,0,Upper West Side Central Park apartment,20153029,Tal,Manhattan,Upper West Side,40.77244,-73.98043,Entire home/apt,190,7,0,,,1,0,Sean,Windsor Terrace,35143476,Sean,Brooklyn,40.65182,-73.98043,Entire home/apt,400,7,0,,,1,0
35379267,0,Beautiful apartment in the heart of West Village!,265178222,Ibrahim Ali,Manhattan,West Village,40.73168,-74.00195,Entire home/apt,295,3,2,2019-06-28,2.0,1,195,Refreshing apt in the heart of downtown,Greenwich Village,8415945,Dennis,Manhattan,40.72968,-74.00195,Entire home/apt,157,3,1,2019-06-28,1.0,1,169
35676024,0,"Private bedroom with lovely, spacious shared area",177507494,Evan,Brooklyn,Kensington,40.64264,-73.97855,Private room,67,1,0,,,1,31,Room in Heart of East Village!,East Village,6474887,Dean,Manhattan,40.72397,-73.97855,Private room,115,1,0,,,1,0
36356416,0,[Female Only]Private Room near Columbia University,118767681,Sunny,Manhattan,Upper West Side,40.80243,-73.96637,Private room,49,1,0,,,1,14,Beautiful Room in Clinton Hill,Clinton Hill,1418498,Meryl,Brooklyn,40.68402,-73.96637,Private room,89,4,0,,,1,0
29976484,0,Modern Apartment in the heart of Brooklyn,20857455,Wesley,Brooklyn,East Flatbush,40.65477,-73.95159,Entire home/apt,150,3,1,2018-12-31,0.16,1,0,Cozy room in Manhattan Morningside,Harlem,69243005,Jen,Manhattan,40.82555,-73.95159,Private room,45,3,1,2016-06-14,0.03,2,0
3284019,0,Spacious and Sunny 1BDR Astoria NYC,15055035,Michelle,Queens,Astoria,40.7631,-73.92262,Private room,70,3,25,2016-07-30,0.41,1,353,"Cozy private room in Astoria, 15 min to Manhattan",Long Island City,97580,Igor,Queens,,-73.92936,Private room,70,3,137,2019-06-24,2.84,1,8
34279388,0,Hamilton Heights sanctuary,9070754,Michele,Manhattan,Harlem,40.82672,-73.94948,Private room,50,10,0,,,1,55,LUXRY SPACE IN WILLIAMSBURG - 10 MIN TO CITY,Williamsburg,270881069,Java,Brooklyn,40.71797,-73.94948,Private room,150,3,0,,,1,344
10101358,0,Heart of the East Village,51835429,Timothy,Manhattan,East Village,40.72597,-73.9838,Private room,90,2,0,,,1,0,Marriott Vacation Club Pulse King hotel,Midtown,109904033,Colleen,Manhattan,40.75219,-73.9838,Private room,489,2,0,,,1,311
18793901,0,Quiet & sunny bedroom in central Williamsburg,12345174,Oday,Brooklyn,Williamsburg,40.71816,-73.95799,Private room,146,2,14,2018-10-28,0.62,1,0,Enjoy a few days in Greenpoint,Greenpoint,16282382,Natalie,Brooklyn,40.7359,-73.95799,Entire home/apt,130,2,3,2016-01-02,0.06,1,0
22656623,0,Cozy 1 Bedroom in South Williamsburg,4993038,Tiffany,Brooklyn,Williamsburg,40.71082,-73.96128,Entire home/apt,300,1,1,2018-01-20,0.06,1,0,Cozy Crown Heights w/ Botanical Garden Membership,Crown Heights,26017313,Jamie,Brooklyn,40.67293,-73.96128,Entire home/apt,200,1,2,2017-09-26,0.09,1,0
9171140,0,Private Room PRIME Williamsburg!!,12986471,Grayson,Brooklyn,Williamsburg,40.71984,-73.9588,Private room,75,1,1,2015-11-25,0.02,1,0,Big Bright Private Room in Brooklyn,Prospect-Lefferts Gardens,5753744,Rindon,Brooklyn,40.66261,-73.9588,Private room,42,1,1,2016-10-02,0.03,2,0
34555635,0,One of a Kind Williamsburg Artist Studio Loft,128810972,Vlasta,Brooklyn,Williamsburg,40.71639,-73.96696,Private room,200,1,8,2019-06-22,4.21,2,0,One COSO private room in 108th,Upper West Side,28649974,Ding,Manhattan,40.80152,-73.96696,Private room,50,1,0,,,1,0
32788877,0,"Private Queen Room in 2Br
on Broadway Astoria",193111692,Dan,Queens,Astoria,40.76317,-73.92208,Private room,75,21,0,,,1,0,Spacious Bedroom + Office in Bed-Stuy Brownstone,Bedford-Stuyvesant,34773529,Tirzah,Brooklyn,40.68207,-73.92208,Private room,45,5,0,,,1,0
11859901,0,Room plus private bath near dumbo,26867230,Kayla,Brooklyn,Downtown Brooklyn,40.69796,-73.98268,Private room,50,1,3,2016-04-01,0.07,2,0,Eclectic 1 Bdrm off  Park Ave South,Midtown,7991797,Jamaal,Manhattan,40.74509,-73.98268,Entire home/apt,200,1,9,2016-04-08,0.2,1,0
9595222,0,Cozy Park Slope Apartment,4397614,Sarah,Brooklyn,Park Slope,40.67809,-73.97324,Entire home/apt,125,1,0,,,1,0,Studio in UWS- Manhattan,Upper West Side,14586567,Paula,Manhattan,40.79368,-73.97324,Entire home/apt,150,1,0,,,1,0
31283569,0,Cozy sunny room in Washington Heights,80054574,Esaú,Manhattan,Washington Heights,40.85547,-73.92912,Private room,33,3,1,2019-01-17,0.17,1,0,The perfect spot in Bushwhick,Bushwick,9320995,Jessie,Brooklyn,40.7035,-73.92912,Private room,35,3,1,2018-01-01,0.05,1,0
33694628,1,Cozy apartment by Central Park,253906467,Erik,Manhattan,Hell's Kitchen,40.76449,-73.99107,Shared room,60,1,14,2019-06-20,4.62,9,349,Cozy apartment by Central Park,Hell's Kitchen,253906467,Erik,Manhattan,40.76473,-73.99003,Shared room,69,1,8,2019-07-03,2.7,9,347
6662241,0,NYC Brownstone Duplex With Backyard in Chelsea.,30208406,Yaron,Manhattan,Chelsea,40.73857,-73.99787,Entire home/apt,400,1,4,2017-12-31,0.08,1,0,Stylish 1br apt west village,Greenwich Village,5291029,Qiyao,Manhattan,40.73411,-73.99787,Entire home/apt,108,1,111,2019-02-25,2.57,1,0
26193678,0,Manhattan Apartment - Near North Central Park,108286255,Gabrielle,Manhattan,Harlem,40.81264,-73.94231,Private room,60,1,3,2019-01-01,0.46,1,0,"Sunny room in historic Bedstuy, Brooklyn",Bedford-Stuyvesant,124171,Miguel,Brooklyn,40.68533,-73.94231,Private room,60,1,1,2018-07-08,0.08,1,0
9575562,0,Sunny Apt in the Heart of Brooklyn,23254783,Amanda,Brooklyn,Williamsburg,40.71219,-73.94826,Entire home/apt,115,3,43,2019-07-07,1.03,1,0,NEW COZY STUDIO WITH LARGE PRIVATE OUTDOOR SPACE,Upper East Side,81712936,Allie,Manhattan,40.78202,-73.94826,Entire home/apt,200,3,3,2019-06-14,1.76,2,0
7093979,0,1st Floor 3 Bedroom Apt Midtown NYC,3946744,Raj,Manhattan,Midtown,40.75651,-73.96696,Entire home/apt,450,2,0,,,1,0,One COSO private room in 108th,Upper West Side,28649974,Ding,Manhattan,40.80152,-73.96696,Private room,50,1,0,,,1,0
6002382,0,Cozy room in Great Neighborhood,4266202,Jackeline,Queens,Astoria,40.76105,-73.92068,Private room,60,2,0,,,1,0,Hidden Oasis steps from stadium minutes from City,Concourse,263760411,Jasmine And Isaac,Bronx,40.83207,-73.92068,Private room,42,2,0,,,1,326
10054894,0,Spacios Room in Gorgeous Apt!,280883,Graciela,Manhattan,Harlem,40.82353,-73.93824,Private room,90,1,0,,,1,0,Room in Williamsburg opposite park,Williamsburg,26185036,Tim,Brooklyn,40.71647,-73.93824,Private room,65,1,0,,,1,0
294263,1,Loft Suite @ The Box House Hotel,417504,The Box House Hotel,Brooklyn,Greenpoint,40.73661,-73.95479,Entire home/apt,199,3,89,2019-07-01,1.06,28,62,Loft Suite @ The Box House Hotel,Greenpoint,417504,The Box House Hotel,Brooklyn,40.73857,-73.95435,Entire home/apt,199,3,23,2019-04-23,0.26,28,81
17464043,0,Lovely Brooklyn Apt,49166783,Dalal,Brooklyn,Williamsburg,40.71704,-73.95371,Shared room,175,3,0,,,1,0,Room In Bed-Stuy Apartment,Bedford-Stuyvesant,68547639,Darren,Brooklyn,40.68901,-73.95371,Private room,100,1,0,,,1,0
12902467,0,Cozy and relaxing East Village home,1411232,Thomas,Manhattan,East Village,40.7266,-73.97872,Entire home/apt,150,1,3,2016-05-19,0.08,1,0,Sunny Room with Back Yard in Brooklyn,Windsor Terrace,70181422,Chris And Zaneta,Brooklyn,40.65211,-73.97872,Private room,65,1,13,2016-12-11,0.35,4,0
671496,0,Great private room in awesome area!,3403890,Cory,Brooklyn,Crown Heights,40.67138,-73.95577,Private room,70,3,0,,,1,0,Eclectic Williamsburg Townhouse,Williamsburg,10396710,Robbie,Brooklyn,40.70933,-73.95577,Private room,56,3,2,2016-06-13,0.04,1,0
36418759,0,"Spacious Room w/ AC, Laundry, WiFi + Free Cleaning",154980356,Joanne & Robert,Brooklyn,Bedford-Stuyvesant,40.686,-73.93,Private room,32,30,0,,,1,10,Spacious Brooklyn One Bedroom/Loft***Morgan L Stop,Williamsburg,40313256,Joey,Brooklyn,40.70552,-73.93,Entire home/apt,195,4,0,,,1,0
6967201,0,Huge Room on Central Park,36530547,Tj,Manhattan,Upper West Side,40.79126,-73.96738,Private room,110,1,0,,,1,0,"Huge 1bdrm w pt Doorman, WiFi/Cable, Bottled Water",Midtown,78285810,Shira,Manhattan,40.75494,-73.96738,Entire home/apt,259,4,0,,,1,0
32672993,0,Cozy room in LES/Chinatown,2238256,Jaclyn,Manhattan,Chinatown,40.71463,-73.99054,Private room,128,13,0,,,1,91,NYC Theatre District 1 Bdrm Apt ,Hell's Kitchen,10074602,Shane,Manhattan,40.76435,-73.99054,Entire home/apt,200,5,0,,,1,0
35796194,0,"Super Nice Flat in Nolita, NYC",33144953,Carly,Manhattan,Nolita,40.72206,-73.99695,Entire home/apt,189,4,0,,,1,317,Luxury doorman building w amenities,Chelsea,670690,Robert,Manhattan,40.73809,-73.99695,Entire home/apt,500,1,0,,,1,0
3168120,0,SPACIOUS & SUNNY East Village Gem,16069958,Nicholas,Manhattan,East Village,40.72854,-73.98434,Entire home/apt,171,2,1,2014-06-30,0.02,1,0,Lower East Side Private room.,Lower East Side,6699943,Rik,Manhattan,40.72103,-73.98434,Private room,188,2,2,2019-01-29,0.09,1,0
22032605,0,Spacious Attic Room,160899890,Carly,Brooklyn,Midwood,40.61609,-73.95893,Private room,35,1,2,2018-01-02,0.11,1,0,Private room in a cozy apartment,Bedford-Stuyvesant,23425862,Gagandeep,Brooklyn,40.69169,-73.95893,Private room,49,1,0,,,2,0
4303600,1,Luminous Modern Apt Share for Young Professionals,2822805,Ollie,Brooklyn,Bedford-Stuyvesant,40.68531,-73.95185,Private room,60,30,44,2019-05-19,0.78,8,99,Luminous Modern Apt Share for Young Professionals,Bedford-Stuyvesant,2822805,Ollie,Brooklyn,40.68586,-73.9501,Private room,60,30,41,2019-02-23,0.65,8,245
11102591,0,Room in the heart of Williamsburg,4110759,Lorenzo,Brooklyn,Williamsburg,40.71725,-73.95392,Private room,60,7,0,,,1,0,Sunny apartment in the heart of LIC,Long Island City,25705189,Greta,Queens,40.74364,-73.95392,Entire home/apt,100,5,0,,,1,0
16288234,0,Spacious room in Historical District Brownstone,106546614,Raymond,Brooklyn,Bedford-Stuyvesant,40.68369,-73.94193,Private room,40,7,0,,,1,0,"Manhattan, West Side, Hudson River View",Washington Heights,155618754,Monica,Manhattan,40.84857,-73.94193,Private room,85,3,0,,,1,0
13694129,1,"Manhattan-very close to everywhere
muy cercadetodo",71886811,W. Alvaro,Manhattan,Morningside Heights,40.81596,-73.95999,Private room,86,6,34,2019-03-27,0.93,3,90,"Manhattan-very close to everywhere
muy cercadetodo",Morningside Heights,71886811,W. Alvaro,Manhattan,40.81441,-73.9589,Private room,67,6,22,2019-04-27,0.59,3,90
29517788,0,"Super Spacious, Renovated, Artsy Uptown Apartment",13102999,Jhila,Manhattan,Harlem,40.82827,-73.94257,Entire home/apt,108,3,15,2019-06-15,1.99,1,0,Cute room in charming Bk share,Bedford-Stuyvesant,4231636,David,Brooklyn,40.68721,-73.94257,Private room,50,3,4,2016-01-13,0.09,1,0
31332746,1,private room,221574115,Ahmet,Brooklyn,Bensonhurst,40.61203,-74.00181,Private room,40,10,0,,,2,0,private room,Bensonhurst,221574115,Ahmet,Brooklyn,40.61208,-74.00181,Shared room,15,10,0,,,2,0
20327659,0,Renovated 1-bedroom apartment in Gramercy,127759523,Michael,Manhattan,Gramercy,40.73775,-73.98319,Entire home/apt,179,1,0,,,1,0,Sunny 1 bedroom at EAST VILLAGE( L train -1st Ave),East Village,48770990,Viola,Manhattan,40.72993,-73.98319,Private room,78,15,0,,,1,22
9921366,0,Luxury Apartment w/ Rooftop Patio,51002691,Paul,Brooklyn,Bedford-Stuyvesant,40.6809,-73.94537,Entire home/apt,65,1,0,,,1,0,Private room in a cozy Hamilton Heights apartment,Harlem,161846641,Shayna,Manhattan,40.83051,-73.94537,Private room,48,1,13,2018-10-18,0.77,1,0
12191116,0,cheap & safe next to Central PK,57070933,Yiin,Manhattan,Upper West Side,40.79981,-73.96097,Private room,60,1,5,2016-07-12,0.14,2,0,Best location Just 5 min to MANHATTAN,Williamsburg,217784241,Analia,Brooklyn,40.70999,-73.96097,Private room,70,1,33,2019-05-31,6.92,4,0
3826908,0,"Home, Sweet Home!",19691070,Haim,Queens,Long Island City,40.74622,-73.94277,Private room,79,1,39,2019-07-06,0.83,1,297,Amazing room in uptown Manhattan,Washington Heights,27439022,Boris,Manhattan,40.85008,-73.94277,Private room,85,2,95,2019-07-06,1.96,1,321
32407324,0,"NEW Luxury 1BR, Floor to ceiling windows, balcony",122559140,Javicia,Brooklyn,Fort Greene,40.68912,-73.97903,Entire home/apt,133,25,1,2019-07-01,1.0,1,0,East Village House -- Unique!,East Village,272730,Goldi,Manhattan,40.72956,-73.97903,Entire home/apt,250,1,60,2019-07-01,0.65,1,0
14933893,0,Cozy walk-up in The Upper East Side,60904698,Toby,Manhattan,Upper East Side,40.77334,-73.94848,Private room,75,1,3,2016-09-19,0.09,1,0,Charming Private Bedroom in the Trees,Williamsburg,7931702,Gregory,Brooklyn,40.71238,-73.94848,Private room,70,1,2,2019-06-18,1.2,1,0
36036692,0,"Views, modern layout, elevator, sweet LES.",1316936,Carlo,Manhattan,Chinatown,40.71688,-73.9904,Private room,125,31,0,,,1,179,Room in Hells Kitchen for short term stay!,Hell's Kitchen,69572951,Ilija,Manhattan,40.76316,-73.9904,Private room,100,4,0,,,1,0
4786030,0,East Village sunny/new bedroom,24672682,Panayota,Manhattan,East Village,40.72879,-73.97959,Private room,110,1,1,2015-01-01,0.02,1,0,Luxury Apt in Prime Location,Kips Bay,37186427,Olta,Manhattan,40.7449,-73.97959,Private room,120,1,1,2015-07-24,0.02,1,0
4502339,0,Centrak Park North cozy apartment,23349530,Yely,Manhattan,Harlem,40.80204,-73.95656,Shared room,80,1,0,,,1,59,"Cozy, clean in Greenpoint Brooklyn!",Greenpoint,5287536,Kaya,Brooklyn,40.72961,-73.95656,Entire home/apt,120,1,0,,,1,0
23789466,0,Cozy Mid Century Modern Studio 15 min to Manhattan,178507107,Alyssa,Brooklyn,Bushwick,40.70484,-73.92117,Entire home/apt,100,2,7,2018-04-29,0.45,1,0,"Bright, Modern, Spacious Duplex Apt",Astoria,1253313,Gabriel,Queens,40.76964,-73.92117,Entire home/apt,90,2,28,2018-12-31,0.7,1,0
21982096,0,"Friendly, bustling & safe first floor BK gem!",33738190,Jen,Brooklyn,Sunset Park,40.66222,-73.99567,Private room,85,1,0,,,3,0,Chic Bachelorette Pad,Greenwich Village,45944532,Deborah,Manhattan,40.73076,-73.99567,Entire home/apt,300,1,0,,,1,0
31220645,0,Air and Light and Time and Space,646563,Brian,Brooklyn,Clinton Hill,40.68182,-73.96013,Entire home/apt,187,1,8,2019-05-13,1.3,2,0,Private room/office in the heart of Manhattan,Morningside Heights,6958919,Ariella,Manhattan,40.81373,-73.96013,Private room,50,1,0,,,1,0
12601900,0,Magical 1 BR in Crown Heights,16702803,Jacob,Brooklyn,Crown Heights,40.67426,-73.93968,Entire home/apt,70,2,2,2016-06-04,0.05,1,0,"Convenient, comfy,  and bright",Washington Heights,7389707,Yael,Manhattan,40.84539,-73.93968,Shared room,40,2,14,2019-06-13,2.82,2,0
11680027,0,Charming 1BR Apt in LES Side,13305499,J. Ryan,Manhattan,Lower East Side,40.72025,-73.98372,Entire home/apt,145,2,3,2016-05-08,0.07,1,0,Charming 1 Bed in Trendy Location!,East Village,18142696,Morgan,Manhattan,40.72974,-73.98372,Entire home/apt,160,2,5,2015-08-20,0.08,1,0
9685114,0,Live in the clouds,33833815,Bradley,Brooklyn,Fort Greene,40.68878,-73.97995,Entire home/apt,450,1,0,,,1,0,Queen Bedroom in East Village,East Village,59007500,Matt,Manhattan,40.72814,-73.97995,Private room,85,1,4,2016-07-24,0.11,1,0
3629580,0,Upper East Renovated 1 Bedroom,18289867,Dan,Manhattan,East Harlem,40.79032,-73.94523,Private room,55,1,3,2014-08-27,0.05,1,0,Private Room in Harlem,Harlem,20121732,Alison,Manhattan,40.82205,-73.94523,Private room,60,1,0,,,1,0
16507990,0,Cozy Upper West Private Floor,108489381,Shane,Manhattan,Upper West Side,40.78296,-73.98284,Private room,165,1,1,2017-01-02,0.03,1,0,300sqft Bedroom in LES Duplex,Lower East Side,51021121,Brian,Manhattan,40.7202,-73.98284,Private room,120,1,1,2015-12-30,0.02,1,0
27855899,0,"large, stylish, airy East Village loft apartment!",3809729,Yemisi,Manhattan,East Village,40.72307,-73.98369,Entire home/apt,199,3,7,2019-05-05,0.69,1,0,LES sunny bedroom with roof access,Lower East Side,20175896,Zack,Manhattan,40.72132,-73.98369,Private room,110,3,26,2019-04-22,0.64,1,0
20572801,0,"Beautiful, sunlit private room in Spanish Harlem",133924344,Michele,Manhattan,East Harlem,40.792,-73.94522,Private room,79,1,68,2019-04-27,3.02,1,0,Hamilton heights home,Harlem,55325859,Stephanie,Manhattan,40.8241,-73.94522,Entire home/apt,120,1,4,2018-12-31,0.31,1,0
8355794,0,New York Upper West Near Columbia U,15833732,Yawen,Manhattan,Upper West Side,40.80285,-73.9657,Private room,60,5,2,2015-12-01,0.05,1,0,Room in cute apartment in South Williamsburg,Williamsburg,120567010,Molly,Brooklyn,40.71168,-73.9657,Private room,100,5,2,2017-05-25,0.07,1,0
20213732,0,Lovely Brooklyn room near the park & subway,6927464,Grace,Brooklyn,Crown Heights,40.67377,-73.95398,Private room,53,1,0,,,1,0,Spacious 1BR in Williamsburg,Williamsburg,39706334,Erin,Brooklyn,40.71009,-73.95398,Entire home/apt,140,1,0,,,1,0
21231543,1,Hillside Hotel,134184451,Hillside Hotel,Queens,Jamaica,40.70428,-73.81353,Private room,135,1,0,,,18,365,Hillside Hotel,Jamaica,134184451,Hillside Hotel,Queens,40.70259,-73.81415,Private room,135,1,0,,,18,365
14397396,0,Lots of light Upper East Side Apartment.,8116703,Valentina,Manhattan,Upper East Side,40.77315,-73.95848,Entire home/apt,210,3,0,,,1,0,Beautiful and Ridiculously Spacious Master Bedroom,Flatbush,115543091,Yana,Brooklyn,40.65221,-73.95848,Private room,53,2,0,,,1,0
34561332,0,Sun-drenched apartment in the heart of Brooklyn,12276549,Carolin,Brooklyn,Crown Heights,40.67182,-73.95985,Entire home/apt,275,3,0,,,2,0,Cozy Apartment in BKLYN near Prospect Park!,Prospect-Lefferts Gardens,15311573,Alicia And Zach,Brooklyn,40.65798,-73.95985,Private room,83,3,14,2017-01-02,0.31,1,0
36062014,0,"Chic room, excellent location!",14844084,Patricia,Manhattan,Harlem,40.82625,-73.94791,Private room,75,4,0,,,1,113,Beautiful Private Area in Flatbush,East Flatbush,2164856,Jasmine,Brooklyn,40.64939,-73.94791,Private room,50,1,0,,,1,0
34899507,0,Cozy Studio Apartment on the Upper East Side,133449862,Stella,Manhattan,Upper East Side,40.76735,-73.95433,Entire home/apt,130,5,0,,,1,188,Fab Williamsburg Brooklyn Apt.,Greenpoint,5772472,Anthony,Brooklyn,40.72,-73.95433,Entire home/apt,500,5,0,,,1,0
16828918,0,Cute Room Perfect Downtown Location,29040298,Paulien,Manhattan,Little Italy,40.72043,-73.99706,Private room,64,3,0,,,1,0,Beautiful 1BR in Chelsea,Chelsea,46293809,Courtney,Manhattan,40.74336,-73.99706,Entire home/apt,250,1,0,,,1,0
10340695,0,Spacious bedroom near Prospect Park,53217509,Kelsey,Brooklyn,Crown Heights,40.67434,-73.95762,Private room,45,4,0,,,1,0,Bright Nordic Serenity in Brooklyn,Midwood,33721278,Margrethe,Brooklyn,40.61839,-73.95762,Private room,70,1,0,,,1,0
22232444,0,Oversized 1BR in Doorman Building by Central Park,33610939,Ishaan,Manhattan,Morningside Heights,40.80486,-73.9656,Private room,200,2,0,,,1,0,"Charming, Quiet Room with Full Bed",Prospect Heights,683203,Suguna,Brooklyn,40.675,-73.9656,Private room,34,2,2,2016-03-10,0.05,1,0
31565717,0,Renovated entire floor apt in prime Williamsburg!,27446767,Dario,Brooklyn,Williamsburg,40.71272,-73.95599,Private room,59,4,0,,,1,0,My Artsy Haven in Bed Stuy,Bedford-Stuyvesant,10970798,Atiya,Brooklyn,40.68851,-73.95599,Private room,55,14,0,,,1,0
21827276,0,Cozy Minimalist Small Room in a Great Apartment,93011199,Marion,Brooklyn,Bedford-Stuyvesant,40.68588,-73.95551,Private room,50,1,24,2018-05-24,1.21,1,0,"Crown Heights, Franklin Ave- Sunny Room",Crown Heights,60059749,Amanda,Brooklyn,40.67283,-73.95551,Private room,55,1,21,2017-07-26,0.53,2,0
34343990,0,Charming Private Bedroom in the Trees,7931702,Gregory,Brooklyn,Williamsburg,40.71238,-73.94848,Private room,70,1,2,2019-06-18,1.2,1,0,Private bedroom Roosevelt island,Roosevelt Island,102442325,Candice,Manhattan,40.76184,-73.94848,Private room,47,1,2,2018-05-25,0.11,1,0
4679967,0,Big quiet room in Harlem,7304425,Elia,Manhattan,Harlem,40.82888,-73.94467,Private room,56,1,7,2016-06-07,0.14,1,0,"Cozy, clean apartment in Greenpoint",Greenpoint,49202910,Megan,Brooklyn,40.72637,-73.94467,Private room,70,1,0,,,1,0
10019335,0,Your home in the historic district,48818023,Sarah,Manhattan,Harlem,40.82909,-73.94183,Entire home/apt,78,5,0,,,1,0,Beautiful room in beautiful apartment super clean,Bedford-Stuyvesant,67665882,Nitzan,Brooklyn,40.67903,-73.94183,Private room,130,10,0,,,1,0
21244035,1,Hillside Hotel,134184451,Hillside Hotel,Queens,Jamaica,40.70319,-73.8141,Private room,135,1,2,2018-06-10,0.09,18,365,Hillside Hotel,Jamaica,134184451,Hillside Hotel,Queens,40.70445,-73.81399,Private room,135,1,1,2017-10-08,0.05,18,180
35162306,0,"Private Sunny Room in Williamsburg, Brooklyn - NY",30054890,Gary,Brooklyn,Williamsburg,40.70706,-73.95048,Private room,60,3,2,2019-06-29,2.0,2,0,Cozy Quite Room in NYC Manhattan Upwest,Harlem,125833008,Wendy,Manhattan,40.83053,-73.95048,Private room,94,3,2,2017-05-31,0.08,1,0
7094462,0,Adorable One Bedroom in Greenpoint,10896584,Julianna,Brooklyn,Greenpoint,40.7324,-73.95828,Entire home/apt,120,2,6,2015-10-04,0.13,1,0,Large 1 bed apt in heart of Williamsburg,Williamsburg,3695865,Jessica,Brooklyn,40.71911,-73.95828,Entire home/apt,200,2,3,2016-10-30,0.08,1,0
18355480,0,Williamsburg Plant Filled Sunny Apartment :D,16718650,Joseph,Brooklyn,Williamsburg,40.71099,-73.95825,Private room,250,1,0,,,1,0,xxx,Morningside Heights,137779917,Neng,Manhattan,40.81012,-73.95825,Private room,55,1,0,,,1,0
18182318,0,Luxury Musician's Loft with Incredible City Views,9563971,Doa,Brooklyn,Williamsburg,40.70858,-73.95857,Entire home/apt,250,2,5,2019-04-02,0.18,1,0,"1 Bedroom in the Heart of The Upper East Side, NY",Upper East Side,60495305,Joe,Manhattan,40.7732,-73.95857,Private room,100,2,14,2018-01-01,0.46,1,0
35839702,0,Brooklyn's Best Location ~ Kingsland Paradise,27007200,Lili,Brooklyn,Williamsburg,40.7193,-73.93993,Entire home/apt,125,7,0,,,1,29,"SB 2014/Winter in NYC, PH, 860 sf!!",Harlem,10419406,Scott,Manhattan,40.82486,-73.93993,Entire home/apt,300,3,0,,,1,0
19248044,0,Two-story Zen Oasis One Block from Central Park,952909,Peter,Manhattan,Upper West Side,40.77949,-73.98,Entire home/apt,183,30,0,,,1,0,"Penthouse Suite at the Manhattan Club, NYC",Midtown,91757655,Edward,Manhattan,40.7656,-73.98,Private room,450,3,0,,,1,339
4226535,0,Bright Top Floor Apartment In The Heart Of BK,14543419,Juli,Brooklyn,Crown Heights,40.6721,-73.95372,Entire home/apt,99,5,16,2018-12-06,0.28,1,0,Tranquil in the heart of Brooklyn 1,Bedford-Stuyvesant,1417166,Lex,Brooklyn,40.6865,-73.95372,Private room,65,5,45,2019-05-26,0.52,2,0
21119908,0,"Cozzy Room on Bedford, 20 minutes to Manhattan",28953246,Maxim,Brooklyn,Bedford-Stuyvesant,40.68988,-73.95396,Private room,100,1,0,,,1,0,Modern looking private room in Brooklyn's heart,Flatbush,48692009,Luc,Brooklyn,40.64627,-73.95396,Private room,50,1,0,,,1,0
47370,0,Chelsea Studio sublet 1 - 2 months,214287,Alex,Manhattan,Chelsea,40.74031,-73.99999,Entire home/apt,125,3,3,2015-07-17,0.03,1,0,Bright Rm avail in heart of Village,Greenwich Village,7683052,Leah,Manhattan,40.72998,-73.99999,Private room,110,3,7,2018-12-10,0.12,1,0
6335490,0,Best location in NYC!,4365980,Benjamin,Manhattan,Gramercy,40.73481,-73.98669,Entire home/apt,194,2,8,2017-01-19,0.16,1,0,"Spacious 1BR  in Park Slope, Brooklyn NEAR PARK",South Slope,8345393,Alexandra,Brooklyn,40.66563,-73.98669,Entire home/apt,150,2,3,2017-08-24,0.13,1,0
20809807,1,A CLASSIC NYC NEIGHBORHOOD-EAST 86TH/5TH AVENUE,76104209,Rated,Manhattan,Upper East Side,40.77981,-73.96031,Entire home/apt,220,30,0,,,33,334,A CLASSIC NYC NEIGHBORHOOD-EAST 86TH/5TH AVENUE,Upper East Side,76104209,Rated,Manhattan,40.78015,-73.95852,Entire home/apt,225,30,0,,,33,346
65556,0,"Room in S3rd/Bedford, Williamsburg",320422,Marlon,Brooklyn,Williamsburg,40.71368,-73.9626,Private room,60,3,0,,,1,0,Spacious 1 BR by Central Park!,Upper West Side,52656626,Cassandra,Manhattan,40.79772,-73.9626,Entire home/apt,120,3,11,2017-08-17,0.32,1,0
10276934,0,位于曼哈顿岛上125街Broadway性价比超高房间短租~,52756677,Yingxiang,Manhattan,Harlem,40.81667,-73.95695,Private room,35,3,0,,,1,0,Large 1Br in Brooklyn cottage,Williamsburg,7390259,Sean,Brooklyn,40.71591,-73.95695,Private room,70,6,0,,,1,0
9862831,0,Pleasant studio Chelsea (Manhattan),50761842,Michael,Manhattan,Chelsea,40.74443,-74.00259,Entire home/apt,80,5,0,,,1,0,Soho/West Village 1 bedroom apt,Greenwich Village,23985505,Liz,Manhattan,40.72835,-74.00259,Entire home/apt,150,1,0,,,1,0
11186765,1,"Lovely room with private bathroom, near Manhattan",58234433,Martin,Queens,Sunnyside,40.7359,-73.91912,Private room,129,1,52,2019-06-16,1.27,8,250,"Lovely room with private bathroom, near Manhattan",Sunnyside,58234433,Martin,Queens,40.73657,-73.91975,Private room,129,1,10,2019-06-13,1.02,8,275
7693124,0,Upper West Side 64th and Amsterdam,20691165,Ahnastasia,Manhattan,Upper West Side,40.77368,-73.98704,Private room,60,3,4,2017-08-01,0.08,1,0,Quaint South Slope Retreat,South Slope,8838044,Aaron,Brooklyn,40.66249,-73.98704,Entire home/apt,150,3,34,2019-05-01,0.77,1,0
30296768,0,Sunny and plant-filled room in Crown Heights!,73524680,Shannon,Brooklyn,Crown Heights,40.6772,-73.94442,Private room,60,2,18,2019-05-25,3.38,1,0,Charming studio in the heart of Williamsburg,Williamsburg,132839074,Jill,Brooklyn,40.71673,-73.94442,Entire home/apt,101,2,7,2019-02-09,0.64,1,0
13711439,0,Air-Conditioned 2BR w Stunning View,80068221,Scott,Brooklyn,Sunset Park,40.66448,-73.99407,Entire home/apt,130,2,3,2016-08-06,0.08,1,0,Sunny Bedroom at Union Square,Chelsea,21410546,Hong Ngoc,Manhattan,40.737,-73.99407,Private room,85,2,4,2018-06-10,0.27,1,0
19325562,0,Private Room in East Village Apartment,119968055,Michelle,Manhattan,East Village,40.72706,-73.98583,Private room,100,1,0,,,1,0,quitissential brooklyn loft,DUMBO,9813350,Jeremy,Brooklyn,40.70289,-73.98583,Entire home/apt,150,9,0,,,1,0
13065655,0,Charming 1BR in Astoria with HUGE Outdoor Space!,72398084,David,Queens,Astoria,40.76803,-73.93033,Entire home/apt,110,21,0,,,1,0,Modern Luxury Private Rm. W Rooftop Bushwick,Bushwick,244231812,Joshua,Brooklyn,40.70084,-73.93033,Private room,80,1,0,,,1,341
21175464,0,"Nostrand Ave & St Johns, Dble room in shared apt.",152882655,Edward,Brooklyn,Crown Heights,40.67249,-73.94933,Private room,75,3,1,2017-10-08,0.05,1,0,Cozy 1 br apartment in Williamsburg,Williamsburg,15586243,Andrew And Coline,Brooklyn,40.7095,-73.94933,Entire home/apt,100,3,1,2015-04-27,0.02,1,0
30663568,0,"Chic, Quiet, Convenient East Village One-Bedroom",193420283,Daniel,Manhattan,East Village,40.73079,-73.98117,Entire home/apt,240,2,7,2019-06-18,1.01,1,0,Cozy room in the heart of Park Slope.,Park Slope,18240752,Vadzim,Brooklyn,40.67538,-73.98117,Private room,47,2,7,2017-05-01,0.26,1,0
20011434,0,Hank's,28825500,Matt,Brooklyn,Williamsburg,40.71088,-73.95099,Private room,100,1,0,,,1,0,Bedroom in UWS,Harlem,50448556,Miguel,Manhattan,40.80518,-73.95099,Private room,100,1,1,2015-12-03,0.02,5,0
5766895,0,Charmingly Rustic Apt in Ft Greene,3448931,Rachel,Brooklyn,Clinton Hill,40.69174,-73.96872,Entire home/apt,195,3,6,2017-05-29,0.12,1,0,Private room in the hearth of NYC,Midtown,58467654,Thomas,Manhattan,40.75771,-73.96872,Private room,90,3,3,2017-01-02,0.07,1,0
3628190,0,Sunny Private Apt in Ditmas Park,14905237,Tina,Brooklyn,Flatbush,40.64372,-73.95969,Entire home/apt,120,3,12,2018-08-19,0.22,1,0,Madeline’s Place,Sunset Park,135363269,Hal,Brooklyn,,-74.00656,Entire home/apt,120,3,0,,,1,320
20730891,0,Private Studio Sublet in Upper East Side,19141737,Zing,Manhattan,Upper East Side,40.77037,-73.95734,Entire home/apt,120,6,0,,,1,0,Cool Urban Brooklyn,Flatbush,40312918,Jordy,Brooklyn,40.65263,-73.95734,Private room,80,5,0,,,1,0
1762513,0,"2bd/2bth, drmn, 1 block from subway in LIC",9264606,Jeremy,Queens,Long Island City,40.74849,-73.94947,Entire home/apt,275,7,0,,,1,0,Crown Heights Stunner,Crown Heights,13563861,Mandi,Brooklyn,40.67211,-73.94947,Entire home/apt,200,2,0,,,1,0
9899499,0,Beautiful Greenpoint Apartment,10836122,Laurance,Brooklyn,Greenpoint,40.72522,-73.94022,Private room,50,1,1,2015-12-26,0.02,1,0,Great for a family of 4!,Washington Heights,36634420,Kobi,Manhattan,40.85183,-73.94022,Entire home/apt,120,1,0,,,1,0
19674542,0,"One-bedroom, two-bathroom apartment in Brooklyn.",138546022,Nicholas,Brooklyn,Crown Heights,40.67466,-73.95163,Private room,50,1,1,2017-07-08,0.04,2,0,Studio Apartment ,Upper East Side,9368118,Peter,Manhattan,40.77065,-73.95163,Entire home/apt,150,1,0,,,1,0
14176286,0,Unique Cozy Designer Loft 1 stop to Manhattan,4043259,Tiffany,Brooklyn,Greenpoint,40.72521,-73.95575,Private room,67,2,103,2019-07-07,2.94,2,126,Sunny Private Room in Trendy Williamsburg,Williamsburg,93263,Vivian,Brooklyn,40.71043,-73.95575,Private room,94,2,52,2019-07-03,3.26,1,126
35129021,0,Spacious 1 Bedroom in the Heart of Greenpoint,86210707,Paul,Brooklyn,Greenpoint,40.72859,-73.95905,Entire home/apt,110,2,2,2019-06-22,2.0,1,0,1 Bedroom in 2 bedroom apartment near Central Park,Harlem,126735001,Deundre,Manhattan,40.80106,-73.95905,Private room,78,2,36,2019-06-24,1.94,1,0
17587833,0,Penthouse Luxury Apt with Amazing Views near GCT,119483929,Ryan,Manhattan,Murray Hill,40.7481,-73.97771,Entire home/apt,148,14,0,,,1,0,Studio APT Murray Hill (Gramercy),Kips Bay,50556696,Jeremy,Manhattan,40.74296,-73.97771,Entire home/apt,200,1,0,,,1,0
8720655,0,UES - True 1 BR | Clean & Quiet,729279,Corey,Manhattan,Upper East Side,40.77243,-73.95016,Entire home/apt,96,2,34,2019-06-24,0.75,1,0,Greenpoint private 2 rooms,Greenpoint,196373534,Paschal,Brooklyn,40.72921,-73.95016,Private room,50,2,1,2018-07-10,0.08,1,0
15450257,0,A home away from home in the heart of the UES:),30116728,Emily,Manhattan,Upper East Side,40.78324,-73.95149,Entire home/apt,125,5,1,2018-01-01,0.05,1,0,Big and sunny room in Greenpoint,Greenpoint,8768792,Fernando,Brooklyn,40.72449,-73.95149,Private room,70,5,1,2015-12-15,0.02,1,0
2899082,0,"Large, Bright Williamsburg Loft",7321253,Kathryn,Brooklyn,Williamsburg,40.71853,-73.96287,Entire home/apt,150,3,0,,,1,0,1BR newly renovated - 5 min walk to Central Park,Midtown,42573050,Jesse,Manhattan,40.75903,-73.96287,Entire home/apt,303,5,0,,,1,0
16579236,0,Chambre idéale couple ou amis - Proche Manhattan,24118830,Constanza,Brooklyn,Williamsburg,40.70825,-73.94932,Private room,80,2,5,2017-06-06,0.18,1,0,"Sunny bedroom, next to subway and Central Park",East Harlem,4714927,Elisa,Manhattan,40.78933,-73.94932,Private room,60,2,53,2019-06-19,0.86,4,0
11841988,0,Upper West Side Dream Apartment,37809789,Zabrina,Manhattan,Upper West Side,40.77727,-73.98355,Entire home/apt,200,1,0,,,1,0,East Village Apartment,East Village,3078092,Amanda,Manhattan,40.73144,-73.98355,Private room,75,1,0,,,1,0
6450240,0,Brooklyn Cute Room + Private Bath!,4498389,Zuzi,Brooklyn,Clinton Hill,40.68384,-73.96042,Private room,70,1,4,2015-10-26,0.08,1,0,Central Williamsburg Fab Large Room,Williamsburg,4328005,Dina,Brooklyn,40.71622,-73.96042,Private room,70,1,8,2015-01-07,0.1,1,0
22294297,0,5th Avenue One Bedroom,4085770,Omar,Manhattan,Upper East Side,40.78208,-73.959,Entire home/apt,500,19,0,,,1,0,Crown Heights Gem w/ pvt. balcony,Crown Heights,6238742,Kilolo,Brooklyn,40.67702,-73.959,Entire home/apt,115,1,0,,,1,0
152071,0,Park Slope Apartment,731855,Wendy,Brooklyn,Park Slope,40.67359,-73.97904,Entire home/apt,150,2,0,,,1,8,Big room in East Village!,East Village,8177511,Fredrik,Manhattan,40.72648,-73.97904,Private room,55,7,0,,,1,0
4392066,0,one room bushwick,5605897,Sarah,Brooklyn,Williamsburg,40.70903,-73.9394,Private room,100,1,0,,,1,0,Classic Comfort Private Suite in the Heights,Washington Heights,8556404,Chris,Manhattan,40.85229,-73.9394,Private room,97,2,0,,,1,365
29821998,0,"Cozy apartment, SubwayEMR7NW, 5mins to Manhattan",52767716,Eden,Queens,Long Island City,40.74836,-73.93833,Private room,95,2,3,2018-12-31,0.44,1,0,Bedroom in a Loft  12 minutes from Soho,Bedford-Stuyvesant,22382915,Alessandro,Brooklyn,40.69207,-73.93833,Private room,69,2,0,,,1,0
20303322,1,"Quiet,Comfy&Spacious Room near F/G train",104836016,Qingming,Brooklyn,Kensington,40.6421,-73.98171,Private room,66,2,14,2019-06-01,0.6,4,180,"Quiet,Comfy&Spacious Room near F/G train",Kensington,104836016,Qingming,Brooklyn,40.64007,-73.98011,Private room,66,2,29,2019-06-16,1.25,4,170
36170293,0,Convenient and Spacious Sugar Hill Apartment,272034378,Cristian,Manhattan,Harlem,40.82808,-73.94126,Private room,45,3,0,,,1,10,Giant Private Townhouse w/ Garden,Bedford-Stuyvesant,175694,Mia,Brooklyn,40.6979,-73.94126,Entire home/apt,150,1,0,,,1,0
8532876,0,中央公园旁的现代公寓,34021565,Yujun,Manhattan,Upper West Side,40.79401,-73.96432,Private room,80,1,0,,,1,0,Cute room near Columbia University,Morningside Heights,38679669,Mary,Manhattan,40.80324,-73.96432,Private room,65,4,0,,,1,0
20420507,0,Beautiful Big Brownstone Bedroom w/ Natural Light,65830935,Jade,Brooklyn,Bedford-Stuyvesant,40.6801,-73.94072,Private room,1000,2,0,,,1,0,Uptown Manhattan Private Room,Washington Heights,19312868,Carla,Manhattan,40.83324,-73.94072,Private room,70,1,0,,,1,0
34312320,1,Sonder | The Biltmore | Stunning 1BR + Sofa Bed,219517861,Sonder (NYC),Manhattan,Theater District,40.75969,-73.98732,Entire home/apt,699,29,0,,,327,220,Sonder | The Biltmore | Stunning 1BR + Sofa Bed,Theater District,219517861,Sonder (NYC),Manhattan,40.75963,-73.98764,Entire home/apt,159,29,0,,,327,220
3933382,0,Private room 5 min from manhattan!,20379079,Zack,Queens,Long Island City,40.7512,-73.94019,Private room,60,6,3,2016-07-26,0.08,1,0,Studio in North Manhattan ,Harlem,27538684,Pat,Manhattan,40.81186,-73.94019,Entire home/apt,125,6,2,2015-08-25,0.04,1,0
5102006,0,Quaint Sunny Cobble Hill Brownstone,26360956,Jen,Brooklyn,Cobble Hill,40.68854,-73.99533,Entire home/apt,160,4,16,2016-11-21,0.3,1,0,"Bright, Beautiful Brooklyn Brownstone",Clinton Hill,126643339,Sarah,Brooklyn,,-73.96848,Entire home/apt,160,4,7,2017-05-22,0.26,1,0
9611121,0,Penthouse in Crown Heights,1192413,Yoav,Brooklyn,Crown Heights,40.66909,-73.95144,Entire home/apt,99,1,0,,,1,0,"Clean room in a cozy, peaceful home",Harlem,10380050,Lisa,Manhattan,40.82373,-73.95144,Private room,50,1,37,2016-09-15,0.74,1,0
10074308,0,Luxury Apt in Downtown Brooklyn,51690846,Devaki,Brooklyn,Downtown Brooklyn,40.6965,-73.98377,Private room,75,5,0,,,1,0,Columbus Circle and Park Views,Upper West Side,6914968,Lisa,Manhattan,40.7681,-73.98377,Entire home/apt,2695,1,0,,,1,0
17710717,0,"Light-filled, cozy 2 bedroom apartment",18481424,Tomas,Brooklyn,Bedford-Stuyvesant,40.68968,-73.94483,Entire home/apt,100,7,3,2018-10-21,0.11,1,0,Private space in luxury apartment with river view,Roosevelt Island,63189852,Marshall,Manhattan,40.76811,-73.94483,Private room,50,7,3,2018-08-04,0.23,1,0
28635863,0,Fabulous West Village Modern Luxury,6332730,Nita,Manhattan,Greenwich Village,40.7348,-73.99785,Entire home/apt,400,90,0,,,1,365,New Studio Great Location in NYC,Chelsea,268248281,Jimmy,Manhattan,40.75264,-73.99785,Entire home/apt,225,3,0,,,1,80
8843403,0,Cute room in charming Bk share,4231636,David,Brooklyn,Bedford-Stuyvesant,40.68721,-73.94257,Private room,50,3,4,2016-01-13,0.09,1,0,"Super Spacious, Renovated, Artsy Uptown Apartment",Harlem,13102999,Jhila,Manhattan,40.82827,-73.94257,Entire home/apt,108,3,15,2019-06-15,1.99,1,0
35461466,1,Artsy Private BR in Fort Greene Cumberland,230192510,Zach,Brooklyn,Fort Greene,40.69749,-73.97551,Private room,48,30,0,,,25,257,Artsy Private BR in Fort Greene Cumberland,Fort Greene,230192510,Zach,Brooklyn,40.69633,-73.97361,Private room,48,30,0,,,25,334
8408853,0,Top-Floor Williamsburg Apt Bedroom,6112537,David,Brooklyn,Williamsburg,40.71116,-73.94014,Private room,100,1,2,2016-02-20,0.05,2,0,Home Away from Home in Central Harlem,Harlem,126973731,Andy,Manhattan,40.82439,-73.94014,Private room,55,1,4,2017-05-21,0.15,1,0
19811816,0,"Modern townhouse in Clinton Hill, Brooklyn",28363708,Gregory,Brooklyn,Fort Greene,40.69604,-73.9708,Entire home/apt,350,7,0,,,1,145,"2BR, UWS, Doorman, Balcony, CntrlPK",Upper West Side,16512899,Jeremy,Manhattan,40.7898,-73.9708,Entire home/apt,200,1,0,,,1,0
8794624,0,"Cozy Bedroom in Crown Heights, BK",11918958,Elizabeth,Brooklyn,Crown Heights,40.68003,-73.96123,Private room,50,1,0,,,1,0,"Modern, natural light + in the best location",Williamsburg,4079889,Natalija,Brooklyn,40.71253,-73.96123,Private room,150,2,0,,,1,36
16241319,0,Spacious Brooklyn 2BR house (with cat & parking!),24418469,Kirsten,Brooklyn,East Flatbush,40.64625,-73.95048,Entire home/apt,200,3,6,2019-01-01,0.2,1,0,Cozy Quite Room in NYC Manhattan Upwest,Harlem,125833008,Wendy,Manhattan,40.83053,-73.95048,Private room,94,3,2,2017-05-31,0.08,1,0
10245677,0,One bedroom in great NYC location!,52661714,Chelsea,Manhattan,Hell's Kitchen,40.76214,-73.98985,Private room,300,1,0,,,1,0,Stay in Private Room in PARK SLOPE,Sunset Park,4218873,Elizabeth,Brooklyn,40.66216,-73.98985,Private room,55,1,1,2019-03-31,0.3,1,0
21243952,1,Hillside Hotel,134184451,Hillside Hotel,Queens,Jamaica,40.70288,-73.81531,Private room,135,1,1,2018-01-02,0.05,18,365,Hillside Hotel,Jamaica,134184451,Hillside Hotel,Queens,40.70258,-73.8151,Private room,135,1,0,,,18,365
30445156,0,Great for students!,51842673,Rayquila,Brooklyn,Bedford-Stuyvesant,40.6843,-73.93836,Shared room,725,1,0,,,1,0,*COMFORTABLE  bedroom for FEMALE*,East Harlem,42700722,Yudu,Manhattan,40.79985,-73.93836,Shared room,35,120,0,,,1,0
4482584,0,Private & clean 1 bd/1br Willamsburg w/ roofdeck.,304346,Andy,Brooklyn,Williamsburg,40.71498,-73.96437,Entire home/apt,225,2,0,,,1,0,Sunny and Spacious Apartment With Private Terrace!,Prospect Heights,124046841,Corey & Anna,Brooklyn,40.67714,-73.96437,Entire home/apt,130,2,0,,,1,0
9881516,0,Private Bedroom in Heart of NYC,50839249,Alexandra,Manhattan,Chelsea,40.74836,-73.99031,Private room,50,7,0,,,1,0,BEAUTIFUL 2 BEDROOM APARTMENT BY TIMES SQUARE,Hell's Kitchen,271015294,Natalia,Manhattan,40.76116,-73.99031,Entire home/apt,250,3,0,,,1,259
20304656,0,Big room in West Harlem/Morningside,23741614,Kristin,Manhattan,Harlem,40.80416,-73.95557,Private room,60,7,0,,,1,0,"LIC 1 BR, City & River Views",Long Island City,3191699,Tori,Queens,40.74534,-73.95557,Entire home/apt,199,2,0,,,1,0
11239207,0,The Blair House Rental,33535733,Andrew,Manhattan,Midtown,40.76096,-73.9672,Private room,120,5,0,,,1,0,Private studio. Near Bars & Q-train. Gay friendly,Flatbush,189808492,Mary Beth,Brooklyn,40.63771,-73.9672,Private room,70,3,0,,,1,38
20376152,0,Clinton Hill Private Room,145187951,Nikki,Brooklyn,Bedford-Stuyvesant,40.68385,-73.95627,Private room,50,3,15,2018-06-23,0.69,2,0,"Sunny, Modern Comfort in Harlem",Harlem,61684829,Chris,Manhattan,40.80602,-73.95627,Entire home/apt,250,3,2,2018-12-02,0.27,1,0
9824682,0,1 bedroom apartment w/ Private yard,19103161,Jonathan,Brooklyn,Greenpoint,40.72691,-73.94802,Entire home/apt,150,1,0,,,1,0,Great 1 BR available in UES!,Upper East Side,58523861,Doris,Manhattan,40.77837,-73.94802,Private room,70,1,0,,,1,0
21312440,1,Hillside Hotel,134184451,Hillside Hotel,Queens,Jamaica,40.70269,-73.81585,Private room,165,1,0,,,18,360,Hillside Hotel,Jamaica,134184451,Hillside Hotel,Queens,40.70259,-73.81415,Private room,135,1,0,,,18,365
8311468,0,Huge Loft Studio in Hip Greenpoint!,10023505,Gabriel,Brooklyn,Greenpoint,40.7347,-73.95727,Shared room,185,1,1,2015-10-24,0.02,1,0,BEDROOM AVAILABLE IN UES,Upper East Side,14906645,Michael,Manhattan,40.77685,-73.95727,Private room,65,1,2,2016-05-01,0.05,1,0
19949403,0,"Sunny, Spacious Brooklyn Room & Private Backyard",4685815,Marino,Brooklyn,Williamsburg,40.71015,-73.955,Private room,60,7,1,2017-08-20,0.04,1,0, Studio apartment in Greenpoint,Greenpoint,28699661,Andrzej,Brooklyn,40.73066,-73.955,Entire home/apt,120,7,17,2016-01-05,0.33,1,0
9590866,0,Amazing 1bd in the heart of NYC!!!,49641082,Gary,Manhattan,Harlem,40.81872,-73.94491,Private room,39,1,0,,,1,0,"Large sunny private bedroom, private garden",Greenpoint,106043391,Samuel,Brooklyn,40.72743,-73.94491,Private room,60,3,0,,,1,0
4500615,0,"Chelsea, balcony and 2 bedrooms!",6519939,Raj,Manhattan,Chelsea,40.75005,-73.99718,Entire home/apt,320,3,0,,,1,0,Awesome Chinatown Apartment,Little Italy,12455431,Tommy,Manhattan,40.71855,-73.99718,Shared room,500,1,0,,,1,0
31677547,0,NEW Williamsburg Gardens Large Room Private Bath,86604612,Janet,Brooklyn,Williamsburg,40.70624,-73.9508,Private room,75,2,3,2019-06-22,0.74,1,0,Perfect bedroom. Near Subways Columbia CityCollege,Harlem,16721721,Federico,Manhattan,40.8153,-73.9508,Private room,65,2,18,2018-11-04,0.64,1,0
21312495,1,Hillside Hotel,134184451,Hillside Hotel,Queens,Jamaica,40.70426,-73.81509,Private room,165,1,0,,,18,362,Hillside Hotel,Jamaica,134184451,Hillside Hotel,Queens,40.70319,-73.8141,Private room,135,1,2,2018-06-10,0.09,18,365
36114258,0,Luxury Chelsea Studio,47334774,Sally,Manhattan,Chelsea,40.75223,-74.00816,Entire home/apt,300,2,0,,,1,168,SWING FROM THE CHANDELIER,Tribeca,29941633,William,Manhattan,40.71454,-74.00816,Entire home/apt,850,4,0,,,1,0
19485371,0,Spacious Harlem Hideaway,74238783,Cardelle,Manhattan,Harlem,40.82582,-73.94876,Private room,65,1,6,2017-12-15,0.24,1,0,Blocks Away From Central Park - NYC,East Harlem,37058836,Andrew,Manhattan,40.79682,-73.94876,Entire home/apt,260,1,1,2016-01-01,0.02,1,0
752202,0,"Historic Mansion, Comfortable Room",3955766,Emily,Brooklyn,Bedford-Stuyvesant,40.67968,-73.94715,Private room,100,1,113,2018-08-27,1.43,1,0,Adorable Upper East Side Apartment,Upper East Side,39651842,Samantha,Manhattan,40.77285,-73.94715,Private room,110,1,0,,,1,0
23827761,0,Large 2BR in downtown Manhattan,15784251,David,Manhattan,Little Italy,40.71907,-73.99698,Entire home/apt,375,3,7,2018-11-24,0.46,1,0,Cute Hells Kitchen Apt. w Balcony,Hell's Kitchen,49745850,Alana,Manhattan,40.76192,-73.99698,Entire home/apt,400,3,14,2019-03-31,1.92,1,0
36474023,0,"Cozy, Sunny Brooklyn Escape",1550580,Julia,Brooklyn,Bedford-Stuyvesant,40.68759,-73.95705,Private room,45,4,0,,,1,7,Cozy Room in 2BDR Apt UES,Upper East Side,2784447,James,Manhattan,40.76206,-73.95705,Private room,90,8,0,,,1,0
9975682,0,QUIET AND COZY ROOM,11069084,Laura,Brooklyn,Flatbush,40.6465,-73.96066,Private room,30,1,0,,,1,0,Historic UES Penthouse/Rooftop Terrace by the MET,Upper East Side,146871946,Lauren,Manhattan,40.7774,-73.96066,Entire home/apt,300,1,0,,,1,0
26291721,0,Gem in NoMad - entire apartment,197675041,Alexandra,Manhattan,Midtown,40.7424,-73.9837,Entire home/apt,220,3,0,,,1,28,Sunny Studio in Brooklyn,Downtown Brooklyn,7677048,Florrie,Brooklyn,40.69682,-73.9837,Entire home/apt,140,3,131,2019-06-29,3.24,1,28
29860764,0,"Stylish, clean, quiet space in the UES",2931626,Liz,Manhattan,Upper East Side,40.76747,-73.95451,Entire home/apt,120,2,2,2018-12-28,0.27,1,0,Romantic New York City Get-Away,Harlem,142642693,Bijan,Manhattan,40.80861,-73.95451,Entire home/apt,95,2,24,2019-05-13,3.79,1,0
10043064,0,"Full Apartment NYE! 2BR, fits 6!",51552511,Shelby,Manhattan,Harlem,40.82364,-73.94556,Entire home/apt,150,2,2,2016-01-03,0.05,1,0,Gorgeous Private Studio in Williamsburg/Greenpoint,Williamsburg,15266675,Reggie,Brooklyn,40.71786,-73.94556,Entire home/apt,160,2,9,2018-06-17,0.33,1,0
14361378,0,"Sun Drenched, Huge Room-Park Slope",19877163,Heather,Brooklyn,Boerum Hill,40.68316,-73.97952,Private room,55,2,1,2016-08-11,0.03,1,0,Cozy 1BD next to Central Park,Upper West Side,5662533,Megan,Manhattan,40.77532,-73.97952,Private room,175,2,4,2016-08-05,0.1,1,0
2211028,0,Vibrant Brooklyn location!,11279303,Patrick,Brooklyn,Greenpoint,40.72764,-73.95557,Entire home/apt,225,5,0,,,1,0,Up to 1 Week Rental in Williamsburg,Williamsburg,5769963,Anoush,Brooklyn,40.7172,-73.95557,Entire home/apt,150,1,0,,,1,0
775238,0,Fantastic East Village Location!,3659439,Michelle,Manhattan,East Village,40.72578,-73.98448,Private room,59,4,12,2019-06-23,0.16,1,12,"Cozy, Quiet, 1 bedroom apartment - Lower East Side",Lower East Side,93393807,Al,Manhattan,40.7178,-73.98448,Entire home/apt,177,1,46,2019-06-23,1.5,1,31
13233113,0,Luxury Highrise 1bd -great views -central location,15774226,Mirza,Manhattan,Theater District,40.76318,-73.98473,Private room,104,5,0,,,1,0,new apt for sublet a year,Vinegar Hill,135703190,Sophie,Brooklyn,40.69891,-73.98473,Entire home/apt,300,360,0,,,1,365
21461540,0,"Williamsburg apartment, beautiful rooftop & more",9427815,Liam,Brooklyn,Williamsburg,40.71975,-73.94279,Entire home/apt,175,2,1,2018-01-01,0.05,1,0,Manhattan 1BR for $2000/mo Sublet,Washington Heights,7271842,Arlen,Manhattan,40.83987,-73.94279,Entire home/apt,100,2,1,2016-11-01,0.03,1,0
25507427,0,Bushwick Apt,190828985,Francis,Brooklyn,Williamsburg,40.70337,-73.94081,Entire home/apt,130,1,0,,,2,0,Geometric Getaway,Washington Heights,19544315,Cal,Manhattan,40.83318,-73.94081,Private room,35,1,0,,,2,0
16154904,0,SoHo Apartment Room to Rent Ready,32610275,Mario,Manhattan,Nolita,40.72075,-73.99393,Private room,110,3,0,,,1,0,Charming Brooklyn Heights Apartment,Brooklyn Heights,3053304,Christina,Brooklyn,40.69969,-73.99393,Entire home/apt,125,2,0,,,1,0
10729951,0,Spacious Oasis w/ Private Entrance,10954437,Riah,Brooklyn,Bedford-Stuyvesant,40.6936,-73.94864,Private room,105,1,24,2017-01-08,0.69,1,0,Spacious 1-bedroom Apartment in Manhattan,Roosevelt Island,233364799,Eva,Manhattan,40.76314,-73.94864,Entire home/apt,100,1,21,2019-07-01,3.41,1,0
10542658,0,1 bed room apartment in Greenpoint,2470568,Jonathan,Brooklyn,Greenpoint,40.7235,-73.94203,Entire home/apt,75,1,0,,,1,0,"perfect place for tourist, near subway, restaurant",Harlem,141012246,Ayodeji,Manhattan,40.81745,-73.94203,Private room,100,1,6,2017-10-08,0.25,2,0
20297560,0,1 bright room in a 4 bdr in Ridgewood / Bushwick,13989494,Antoine,Queens,Ridgewood,40.69557,-73.9043,Private room,42,2,1,2017-08-10,0.04,1,0,"#1 PRIVATE STUDIO IN BX,15MINS NYC.",Mott Haven,17658078,Richard,Bronx,40.81049,-73.9043,Private room,79,2,11,2016-03-19,0.19,1,0
4581479,0,曼哈顿上西区林肯中心附近优质公寓短租!,23748343,Apple,Manhattan,Upper West Side,40.77334,-73.99031,Shared room,80,1,0,,,1,0,Private room on restaurant row,Hell's Kitchen,70724645,Carly,Manhattan,40.76007,-73.99031,Private room,79,1,0,,,1,0
11641258,0,Classic Loft in Gramercy/Flatiron - Amazing Value,61719199,Sameer,Manhattan,Flatiron District,40.73955,-73.98568,Entire home/apt,275,2,4,2018-01-01,0.1,1,0,Clean Apt right by Columbus Circle / Central Park,Hell's Kitchen,26921064,Ken,Manhattan,40.76665,-73.98568,Entire home/apt,115,2,0,,,2,0
28835678,0,Charming and cozy one-bedroom on Upper West Side,94395484,Rosemarie,Manhattan,Morningside Heights,40.81511,-73.95998,Entire home/apt,140,2,6,2019-02-24,0.66,1,0,CleanLovely 1BR Apt in Clinton Hill,Bedford-Stuyvesant,10520210,Scarlet,Brooklyn,40.69315,-73.95998,Entire home/apt,110,2,19,2016-06-10,0.44,1,0
27931134,0,NEW Bohemian Brooklyn 1 Bed,210992029,Rebecca,Brooklyn,Flatbush,40.63847,-73.95693,Entire home/apt,195,2,0,,,1,30,Room with a view,Williamsburg,110049861,Martin,Brooklyn,40.70959,-73.95693,Private room,10,1,0,,,1,83
31362276,0,brooklyn charmer,18683197,Uzi,Brooklyn,Sheepshead Bay,40.58449,-73.94132,Entire home/apt,179,7,0,,,1,342,Large NYC Apartment!,East Harlem,45726938,Daulton,Manhattan,40.79368,-73.94132,Private room,100,3,0,,,1,0
23937502,0,1BR in Downtown Brooklyn,17772042,Salem,Brooklyn,Downtown Brooklyn,40.69177,-73.98549,Entire home/apt,195,3,0,,,1,0,Brooklyn townhouse-2 floors..,Gowanus,27712561,Richard,Brooklyn,40.6834,-73.98549,Entire home/apt,150,3,0,,,1,0
35899864,0,Spacious 1 Bedroom Apt in East Williamsburg,132342992,Nicole,Brooklyn,Williamsburg,40.71245,-73.94064,Entire home/apt,150,3,0,,,1,12,Beautiful garden 1 bed 7/8-7/18,East Harlem,4316938,Skye,Manhattan,40.80735,-73.94064,Entire home/apt,175,9,0,,,1,365
16318720,0,"Beautiful, Spacious Harlem Home",2245740,Perry,Manhattan,Harlem,40.81153,-73.94528,Private room,120,7,0,,,1,0,Mid-Century Museum Sleepover,Williamsburg,29065752,Cullen,Brooklyn,40.71863,-73.94528,Entire home/apt,333,7,0,,,1,365
13128992,0,UpperEastSide Sun Drenched 2 Bedrooms Close to All,8687162,Pinar,Manhattan,Upper East Side,40.77847,-73.95371,Entire home/apt,135,15,0,,,1,0,Room In Bed-Stuy Apartment,Bedford-Stuyvesant,68547639,Darren,Brooklyn,40.68901,-73.95371,Private room,100,1,0,,,1,0
32917116,0,"Luxurious townhouse, 2bd w/Loft+2bath+High-ceiling",129412544,Gleason,Brooklyn,Williamsburg,40.711,-73.96218,Entire home/apt,200,180,0,,,1,365,Cozy and sunny 2 bedroom apartment,Upper West Side,17844480,Angie,Manhattan,40.80009,-73.96218,Entire home/apt,130,14,0,,,1,2
7202170,0,Midtown East penthouse studio,37711914,Aleksandar,Manhattan,Murray Hill,,-73.97788,Entire home/apt,160,10,25,2019-06-30,0.53,1,1,Park Ave Apt in the Heart of NYC,Murray Hill,42677381,Anna,Manhattan,,-73.97788,Entire home/apt,250,3,9,2019-01-03,0.57,1,0
6556848,0,Bright and Airy Brooklyn Abode,9119676,Angeline,Brooklyn,Prospect Heights,40.6815,-73.97309,Entire home/apt,175,2,10,2015-12-28,0.2,1,0,Prime Upper West Side Duplex,Upper West Side,15004693,S,Manhattan,40.78304,-73.97309,Entire home/apt,250,2,2,2017-12-24,0.09,1,0
22086518,0,West Village + Water Views,3484157,Lauren,Manhattan,West Village,40.73983,-74.009,Private room,250,2,2,2018-03-15,0.11,1,0,"Perfect Studio, Great location!",Financial District,16255906,Alejandra,Manhattan,40.70507,-74.009,Private room,143,2,3,2018-02-08,0.15,1,0
34208055,0,Private room in queens,1346437,Cristina,Queens,Sunnyside,40.74628,-73.9243,Private room,50,7,0,,,2,35,Designer 2 Bedroom Heart of Bushwick 15min to NYC,Bushwick,44755507,Michael,Brooklyn,40.69496,-73.9243,Entire home/apt,155,30,0,,,2,365
10562085,0,Up to 1 Week Rental in Williamsburg,5769963,Anoush,Brooklyn,Williamsburg,40.7172,-73.95557,Entire home/apt,150,1,0,,,1,0,"LIC 1 BR, City & River Views",Long Island City,3191699,Tori,Queens,40.74534,-73.95557,Entire home/apt,199,2,0,,,1,0
11168007,0,Beautiful Studio in luxury building,6032945,Tabata,Brooklyn,Greenpoint,40.71987,-73.95427,Entire home/apt,110,3,0,,,1,0,Entire Apt (1 Bdr) in the Upper East Side 85 St,Upper East Side,59906749,Heidi,Manhattan,40.7794,-73.95427,Entire home/apt,119,3,6,2018-08-28,0.25,1,0
5077231,0,Charming Bright Upper East Space,7021059,Katie,Manhattan,Upper East Side,40.77636,-73.95099,Entire home/apt,150,1,0,,,2,0,Comfy Sofa Bed in Cozy Apartment,Bedford-Stuyvesant,89873550,TiffanyJoy,Brooklyn,40.68441,-73.95099,Shared room,68,3,0,,,2,0
3647,0,THE VILLAGE OF HARLEM....NEW YORK !,4632,Elisabeth,Manhattan,Harlem,40.80902,-73.9419,Private room,150,3,0,,,1,365,Penthouse in Bedford Stuyvesant ,Bedford-Stuyvesant,9582999,Shane,Brooklyn,40.68305,-73.9419,Entire home/apt,150,1,0,,,1,0
8014315,0,Cozy Victorian Hideaway in Bushwick,259826,Cass,Brooklyn,Bushwick,40.69312,-73.9236,Private room,50,1,1,2015-10-08,0.02,1,0,Super Bowl Space Available! ,Astoria,11706506,Andrea,Queens,40.76895,-73.9236,Shared room,300,1,0,,,1,0
8915246,0,Cozy Sofa Bed for Nightly Stays,2968774,Alexis,Brooklyn,Crown Heights,40.66838,-73.95624,Shared room,45,1,1,2015-11-11,0.02,2,0,Duplex in SoHa,Harlem,18041691,Sebastien,Manhattan,40.80411,-73.95624,Entire home/apt,225,1,5,2016-07-29,0.09,1,0
14164263,0,"Large, sunny and beautiful bedroom in Brooklyn",85684530,Ana,Brooklyn,Flatbush,40.64706,-73.9593,Private room,40,5,0,,,1,0,Modern Apt in Thriving W'Burg,Williamsburg,11358093,Hugh,Brooklyn,40.71283,-73.9593,Entire home/apt,330,5,0,,,1,0
5931824,0,LARGE SUNNY QUIET NY APARTMENT,23116198,Sash,Manhattan,Harlem,40.82896,-73.94059,Private room,50,1,0,,,1,0,Beautiful room upper manhttn.,Washington Heights,34475475,Richard,Manhattan,40.85131,-73.94059,Private room,75,1,0,,,1,0
17042235,0,"Classic Brownstone in Williamsburg, BK W/ Backyard",25967444,Joseph,Brooklyn,Williamsburg,40.71247,-73.96155,Entire home/apt,225,3,15,2018-07-29,0.55,1,0,"Large 2 bedroom, full floor apt.",Civic Center,4092307,Eddie,Manhattan,,-73.99873,Entire home/apt,225,3,3,2017-01-02,0.07,2,189
4885240,0,2BR Entire Floor Apt in Flatiron,210602,Deepen,Manhattan,Chelsea,40.73932,-73.99032,Entire home/apt,300,1,0,,,1,0,Big sunny bedroom - heart of LES!,Lower East Side,6654378,Veronica,Manhattan,40.71796,-73.99032,Private room,58,10,0,,,1,0
21311903,1,Hillside Hotel,134184451,Hillside Hotel,Queens,Jamaica,40.70258,-73.8151,Private room,135,1,0,,,18,365,Hillside Hotel,Jamaica,134184451,Hillside Hotel,Queens,40.70445,-73.81399,Private room,135,1,1,2017-10-08,0.05,18,180
29412276,1,New york Multi-unit building,221434490,Aracely,Queens,Jackson Heights,40.75473,-73.8715,Private room,45,2,22,2019-06-14,2.58,2,138,New york Multi-unit building,Jackson Heights,221434490,Aracely,Queens,40.75586,-73.87014,Private room,49,2,23,2019-06-16,2.86,2,358
36343547,0,Gorgeous 3 BR with backyard 15 minutes from Soho,271799,Emmanuel,Brooklyn,Bedford-Stuyvesant,40.69378,-73.93932,Entire home/apt,200,3,0,,,2,316,Modern and Spacious,Harlem,14911623,Nicholas,Manhattan,40.81816,-73.93932,Private room,150,1,0,,,2,88
22074303,0,1 BR w/Kit Wyndham 45 Midtown- Great Location!,21844834,Charlene,Manhattan,Midtown,40.75228,-73.97195,Entire home/apt,350,4,0,,,1,0,Spectacular Prospect Heights Loft,Prospect Heights,4123046,Julie,Brooklyn,40.68183,-73.97195,Entire home/apt,450,30,0,,,1,0
25281618,0,Private Grand Street Home- 2 BR duplex with deck,117341696,Meredith,Brooklyn,Williamsburg,40.71477,-73.96145,Entire home/apt,250,2,24,2019-06-02,1.83,1,0,MANHATTAN CHARMER WOW - ALL YOURS!!,Upper East Side,3390362,Neill,Manhattan,40.77042,-73.96145,Entire home/apt,200,2,59,2017-08-21,0.73,1,0
20188787,0,Charming and Light-filled 1 BR in Crown Heights,83550011,Rubyn,Brooklyn,Crown Heights,40.67015,-73.95662,Entire home/apt,89,2,8,2018-04-23,0.34,1,0,Bright and Spacious Summer Stay,Harlem,117460213,Kendall,Manhattan,40.82321,-73.95662,Private room,37,2,0,,,1,0
